Station Name,Street Address,City,State,ZIP,Status Code,Latitude,Longitude,ID,Open Date,EV Connector Types,Country,Access Code
City of Lacey - City Hall Parking,420 College St,Lacey,WA,98503,E,47.044011,-122.822404,33351,2018-01-15,J1772,US,public
Seattle-Tacoma International Airport - General Parking,17801 Pacific Hwy S,Seattle,WA,98188,E,47.443377,-122.296229,33717,2010-03-01,NEMA520,US,public
Haggen Food & Pharmacy,1313 Cooper Point Rd SW,Olympia,WA,98502,E,47.035421,-122.938962,35337,2009-08-15,NEMA520,US,public
Avista Corp,1411 E Mission Ave,Spokane,WA,99252,E,47.673347,-117.388933,35620,2010-04-15,J1772 NEMA520,US,public
Steam Plant Grill,159 S Lincoln St,Spokane,WA,99201,E,47.654998,-117.425025,35621,2010-04-15,J1772,US,public
BELLEVUE BELLEVUE CH 1,450 110th Ave NE,Bellevue,WA,98004,E,47.614744,-122.193162,37181,,J1772,US,public
Group Health Olympia Medical Center,700 Lilly Rd,Olympia,WA,98506,E,47.056888,-122.841752,37664,2008-01-15,NEMA520,US,public
The Evergreen State College,2700 Evergreen Pkwy NW,Olympia,WA,98505,E,47.071917,-122.976675,37673,2009-12-15,J1772 NEMA520,US,public
Washington Department of Labor & Industries - Department of Health - Department of Transportation,243 Israel Rd SE,Tumwater,WA,98501,E,46.984193,-122.904856,37677,2008-01-15,J1772,US,public
KING COUNTY DOT ISSAQUAH P&R 2,1755 Highlands Dr NE,Issaquah,WA,98027,E,47.545324,-122.0195,38082,,J1772,US,public
King County - King County Van Distribution Center,18655 NE Union Hill Rd,Redmond,WA,98052,E,47.675897,-122.091237,38083,2011-07-15,J1772,US,private
UWB CASCADIA CC NORTH DUAL 1,18500 Campus Way NE,Bothell,WA,98011,E,47.761878,-122.191915,38952,,J1772,US,public
CITY OF REDMOND CITY HALL DUAL,15670 NE 85th St,Redmond,WA,98052,E,47.679224,-122.12995,38959,,J1772,US,public
CITY OF REDMOND MOC #1 PUBLIC,18080 NE 76th St,Redmond,WA,98052,E,47.672359,-122.099034,38966,,J1772,US,public
WILLOWS LODGE WILLOWS #2,14580 NE 145th St,Woodinville,WA,98072,E,47.734211,-122.147041,38976,,J1772,US,public
Rairdon's Nissan - Auburn,713 35th St NE,Auburn,WA,98002,E,47.338754,-122.221114,39776,2011-03-15,J1772,US,private
Bellingham Nissan,1516 Iowa St,Bellingham,WA,98229,E,48.755607,-122.454132,39778,2011-03-15,CHADEMO J1772,US,public
Advantage Nissan,5101 Auto Center Blvd,Bremerton,WA,98312,E,47.562162,-122.684286,39779,2011-03-15,J1772,US,public
Burien Nissan,16042 1st Ave S,Burien,WA,98148,E,47.458466,-122.333257,39780,2011-03-15,CHADEMO J1772,US,public
Campbell-Nelson Nissan,24325 Highway 99,Edmonds,WA,98026,E,47.778229,-122.344838,39782,2011-03-15,J1772,US,public
Campbell Nissan - Everett,10500 Highway 99 S,Everett,WA,98204,E,47.90272982,-122.2469884,39783,2011-03-15,J1772,US,public
Olympia Nissan,2220 Carriage Dr SW,Olympia,WA,98502,E,47.031067,-122.930247,39786,2011-03-15,J1772,US,public
Bill Robertson Nissan,928 N 28th Ave,Pasco,WA,99301,E,46.236607,-119.128998,39787,2011-03-15,J1772,US,public
Dan Wilder Nissan,53 Jetta Way,Port Angeles,WA,98362,E,48.102863,-123.342273,39788,2011-03-15,CHADEMO J1772,US,public
Puyallup Nissan,101 Valley Ave NW,Puyallup,WA,98371,E,47.207367,-122.294997,39789,2011-03-15,CHADEMO J1772,US,public
Younker Nissan,3401 E Valley Rd,Renton,WA,98058,E,47.448354,-122.2188,39791,2011-03-15,CHADEMO J1772,US,public
Wendle Nissan,9000 N Division St,Spokane,WA,99218,E,47.739021,-117.409937,39795,2011-03-15,J1772,US,public
Dave Smith Nissan - Spokane,6901 E Sprague Ave,Spokane Valley,WA,99212,E,47.657264,-117.312518,39796,2011-03-15,CHADEMO J1772,US,public
Tacoma Nissan,4030 S Tacoma Way,Tacoma,WA,98409,E,47.21978,-122.48576,39797,2011-03-15,J1772,US,public
Alan Webb Nissan,3608 NE Auto Mall Dr,Vancouver,WA,98662,E,45.648094,-122.597954,39798,2011-03-15,J1772,US,public
O'Brien Nissan,1395 Dalles Military Rd,Walla Walla,WA,99362,E,46.047464,-118.353406,39799,2011-03-15,J1772,US,public
KEY CENTER KEY CENTER 6,601 108th Ave NE,Bellevue,WA,98004,E,47.616104,-122.19696,40383,,J1772,US,public
KRC SKYLINE SKYLINE #1,10900 NE 4th St,Bellevue,WA,98004,E,47.61434,-122.194037,40384,,J1772,US,public
Snohomish County - Campus Garage,3000 Rockefeller Ave,Everett,WA,98201,E,47.97725,-122.206369,40772,2011-08-01,J1772,US,public
Caplan's Rainbow Parking,214 Columbia St,Seattle,WA,98104,E,47.604115,-122.332907,41579,2011-10-01,J1772,US,public
CITY OF SEATAC CITY HALL 1,4800 S 188th St,SeaTac,WA,98188,E,47.434021,-122.273183,41776,,J1772,US,public
Puget Sound Energy,3130 S 38th St,Tacoma,WA,98409,E,47.22213,-122.478493,41779,2011-10-15,J1772,US,private
TPU TPU HQ #6,3628 S 35th St,Tacoma,WA,98409,E,47.228593,-122.484226,41780,,J1772,US,public
City of Tacoma - Municipal Building,747 Market St,Tacoma,WA,98402,E,47.255854,-122.44172,42044,2011-11-30,J1772,US,private
BELLEVUE SBCC #2,14509 SE Newport Way,Bellevue,WA,98006,E,47.568871,-122.145285,42228,,J1772,US,public
EASTGATE OFFICE EASTGATE DUAL 1,15395 SE 30th Pl,Bellevue,WA,98007,E,47.581979,-122.136238,42229,,J1772,US,public
KIRKLAND CITY HALL 1,123 5th Ave,Kirkland,WA,98033,E,47.678476,-122.206806,42237,,J1772,US,public
KIRKLAND LIBRARY SOUTH 1,308 Kirkland Ave,Kirkland,WA,98033,E,47.675896,-122.203012,42238,,J1772,US,public
SAMMAMISH GARAGE 1,801 228th Ave SE,Sammamish,WA,98075,E,47.601657,-122.036938,42240,,J1772,US,public
IBEW LOCAL 46 IBEW LOCAL 46 1,19802 62nd Ave S,Kent,WA,98032,E,47.424222,-122.256619,43299,,J1772,US,public
VALLEY MED CTR MAIN LOT #5,400 S 43rd St,Renton,WA,98055,E,47.443255,-122.212445,43303,,J1772,US,public
VALLEY MED CTR N GARAGE #1,4033 Talbot Rd S,Renton,WA,98055,E,47.444606,-122.214491,43305,,J1772,US,public
City of Renton - City Shops,3555 NE 2nd St,Renton,WA,98056,E,47.483635,-122.170748,43795,2017-01-12,J1772,US,private
City of Renton - City Hall,1055 S Grady Way,Renton,WA,98057,E,47.474537,-122.204976,43796,2017-01-12,J1772,US,public
PW PARKING A ST GARAGE 01,110 S 10th St,Tacoma,WA,98402,E,47.253809,-122.437429,43804,,J1772,US,public
PW PARKING GLASS MUSEUM 01,1801 Dock St,Tacoma,WA,98402,E,47.245934,-122.43398,43806,,J1772,US,public
Pierce County - Annex Lot,2401 S 35th St,Tacoma,WA,98409,E,47.228866,-122.469105,43808,2011-12-01,J1772,US,public
Pierce County - City Building,930 Tacoma Ave S,Tacoma,WA,98402,E,47.253668,-122.446141,43809,2011-12-01,J1772,US,public
Campbell-Nelson Nissan,24325 Highway 99,Edmonds,WA,98026,E,47.778229,-122.344838,44136,2011-03-15,J1772,US,private
Campbell Nissan - Everett,10500 Highway 99 S,Everett,WA,98204,E,47.90272982,-122.2469884,44137,2011-03-15,J1772,US,private
Olympia Nissan,2220 Carriage Dr SW,Olympia,WA,98502,E,47.031067,-122.930247,44147,2011-03-15,J1772,US,private
Bill Robertson Nissan,928 N 28th Ave,Pasco,WA,99301,E,46.236607,-119.128998,44148,2011-03-15,J1772,US,private
Puyallup Nissan,101 Valley Ave NW,Puyallup,WA,98371,E,47.207367,-122.294997,44150,2011-03-15,J1772,US,private
Younker Nissan,3401 E Valley Rd,Renton,WA,98058,E,47.448354,-122.2188,44151,2011-03-15,J1772,US,private
City of Seattle - Central Library,1000 4th Ave,Seattle,WA,98104,E,47.606684,-122.332664,44153,2011-12-01,J1772,US,public
City of Seattle - Charles Street,805 S Charles St,Seattle,WA,98134,E,47.594042,-122.317179,44154,2011-12-31,J1772,US,private
City of Seattle - Haller Lake,12600 Stone Ave N,Seattle,WA,98133,E,47.721254,-122.340924,44155,2011-12-31,J1772,US,private
City of Seattle - Muni Tower,700 5th Ave,Seattle,WA,98124,E,47.604906,-122.330278,44156,2011-12-31,J1772,US,private
City of Seattle - Parking Enforcement Division,2203 Airport Way S,Seattle,WA,98134,E,47.582934,-122.323106,44158,2011-12-31,J1772,US,private
City of Seattle - Seattle Center,516 Harrison St,Seattle,WA,98109,E,47.622085,-122.347124,44159,2011-12-01,J1772,US,public
City of Seattle - Seattle City Light North Service Center,1300 N 97th St,Seattle,WA,98103,E,47.699613,-122.341922,44160,2011-12-31,J1772,US,private
City of Seattle - Seattle City Light South Service Center,225 S Spokane St,Seattle,WA,98134,E,47.571399,-122.330911,44161,2011-12-31,J1772,US,private
City of Seattle - Seattle Water Ops,2700 Airport Way S,Seattle,WA,98134,E,47.57952,-122.321401,44162,2011-12-31,J1772,US,private
City of Seattle - West Bridge,4209 W Marginal Way SW,Seattle,WA,98106,E,47.565149,-122.353024,44163,2011-12-31,J1772,US,private
Tacoma Nissan,4030 S Tacoma Way,Tacoma,WA,98409,E,47.21978,-122.48576,44166,2011-03-15,J1772,US,private
Advantage Nissan,5101 Auto Center Blvd,Bremerton,WA,98312,E,47.562162,-122.684286,44270,2011-03-15,J1772,US,private
Burien Nissan,16042 1st Ave S,Burien,WA,98148,E,47.458466,-122.333257,44272,2011-03-15,J1772,US,private
Alan Webb Nissan,3608 NE Auto Mall Dr,Vancouver,WA,98662,E,45.648094,-122.597954,44506,2011-03-15,J1772,US,private
Valley Nissan,1010 S 1st St,Yakima,WA,98901,E,46.590246,-120.500687,44509,2011-11-30,J1772,US,public
Valley Nissan,1010 S 1st St,Yakima,WA,98901,E,46.590246,-120.500687,44510,2011-11-30,J1772,US,private
Snohomish County - Evergreen Fairgrounds,14405 179th Ave SE,Monroe,WA,98272,E,47.868914,-121.987449,45209,2012-01-20,J1772,US,public
Snohomish County - Willis Tucker Community Park,6705 Puget Park Dr,Snohomish,WA,98296,E,47.864699,-122.138672,45211,2012-01-20,J1772,US,public
Seattle City Light,500 Newhalem St,Rockport,WA,98283,E,48.673466,-121.261467,45654,2012-01-01,J1772,US,private
OAK HARBOR OH DUAL #1,1270 SE Dock St,Oak Harbor,WA,98277,E,48.288066,-122.648224,46390,,J1772,US,public
PeaceHealth,1115 SE 164th Ave,Vancouver,WA,98684,E,45.63017,-122.504,47885,2012-05-31,J1772,US,private
Puget Sound Energy,6500 Ursula Pl S,Seattle,WA,98108,E,47.54527283,-122.3087234,48605,2012-06-30,J1772,US,private
KING COUNTY DOT KSC STATION #1,201 S Jackson St,Seattle,WA,98104,E,47.598663,-122.331009,49230,,J1772,US,public
City of Bellevue - Bellevue Service Center,2901 115th Ave NE,Bellevue,WA,98004,E,47.63811493,-122.1882,49759,2012-10-15,J1772,US,private
SKAGIT COUNTY ADMIN STATION 2,1800 Continental Pl,Mount Vernon,WA,98273,E,48.437569,-122.325494,50210,,J1772,US,public
SWEDISH EDMONDS STATION 01,21601 76th Ave. West,Edmonds,WA,98026,E,47.804365,-122.334163,51314,,J1772,US,public
MET PARK WEST MET PARK EAST 1,1730 Minor Ave,Seattle,WA,98101,E,47.616838,-122.329508,51708,,J1772,US,public
MET PARK WEST MET PARK #1,1100 Olive Way,Seattle,WA,98101,E,47.616464,-122.330505,51709,,J1772,US,public
Evergreen Ford,1500 18th Ave NW,Issaquah,WA,98027,E,47.547047,-122.063633,51904,2012-10-01,J1772,US,private
Nikola Broadband,224 W Washington St,Sequim,WA,98382,E,48.079908,-123.105772,51905,2013-05-15,J1772,US,public
Small Car Performance,1403 34th Ave E,Fife,WA,98424,E,47.244104,-122.383139,51906,2013-05-01,NEMA520,US,private
King County - Roads Maintenance Facility,781 Monroe Ave NE,Renton,WA,98056,E,47.4847291,-122.1774112,52142,2013-06-01,J1772,US,private
Kitsap Transit - South Base,1430 Retsil Rd SE,Port Orchard,WA,98366,E,46.979315,-122.914031,52396,2013-07-15,J1772,US,private
Mazama Country Inn,15 Country Rd,Mazama,WA,98833,E,48.594482,-120.406494,53702,2013-11-01,J1772,US,public
Vancouver Ford,6801 NE 40th St,Vancouver,WA,98661,E,45.650388,-122.604007,53968,2013-04-01,J1772,US,public
OLY CITY HALL OLY CITY HALL,601 4th Ave E,Olympia,WA,98501,E,47.044892,-122.895304,55658,,J1772,US,public
VIA6 VIA6-SOUTH,2121 6th Ave,Seattle,WA,98121,E,47.613883,-122.339405,55995,,J1772,US,public
800 FIFTH AVE STATION 2,800  5th Ave,Seattle,WA,98104,E,47.605599,-122.330626,56870,,J1772,US,public
Campbell's Lake Chelan Resort,104 W Woodin Ave,Chelan,WA,98816,E,47.8399,-120.0199,60002,2013-10-04,NEMA520,US,public
Campbell's Lake Chelan Resort,104 W Woodin Ave,Chelan,WA,98816,E,47.8399,-120.0199,60003,2013-10-04,J1772,US,public
Pine Near RV Park,316 Castle Ave,Winthrop,WA,98862,E,48.476543,-120.180796,60004,2013-09-23,J1772,US,public
Omak Inn,912 Koala Dr,Omak,WA,98841,E,48.421424,-119.503978,60005,2013-10-04,J1772,US,public
59er Diner,15361 US 2,Leavenworth,WA,98826,E,47.758434,-120.742416,60006,2014-01-15,J1772,US,public
Pateros Lakeshore Inn,312 Lakeshore Dr,Pateros,WA,98846,E,48.051825,-119.901506,60007,2013-12-28,J1772,US,public
Birkenstock,17506 NE Delfel Ct,Ridgefield,WA,98642,E,45.748069,-122.662816,60229,2014-01-01,J1772,US,public
PARKMETRO1 PARK METRO #1,11101 NE 12th St,Bellevue,WA,98004,E,47.620793,-122.192469,60241,,J1772,US,public
VALLEY MED CTR MAIN LOT #8,4109-4251 Talbot Rd S,Renton,WA,98055,E,47.443123,-122.212538,60331,,J1772,US,public
OLY CITY HALL L CREIGHTON JC,900 Plum St SE,Olympia,WA,98501,E,47.040864,-122.891583,60463,,J1772,US,public
Haselwood Chevrolet Buick GMC,501 W Hills Blvd,Bremerton,WA,98312,E,47.557801,-122.675335,60718,2014-01-01,J1772,US,public
Lakeside 24 Hour Fuel,16835 Lewis River Rd,Cougar,WA,98616,E,46.051228,-122.301754,60814,2014-03-06,J1772,US,public
AWNISSAN QUICK CHARGER 1,3608 NE Auto Mall Dr,Vancouver,WA,98662,E,45.648181,-122.59837,61030,,CHADEMO,US,public
MI SCHOOLS BOYS&GIRLS CLUB,4120 86th Ave NE,Mercer Island,WA,98040,E,47.572423,-122.223262,61426,,J1772,US,public
MI SCHOOLS ADMIN BUILDING,4160 86th Ave SE,Mercer Island,WA,98040,E,47.571243,-122.223155,61580,,J1772,US,public
Pierce County - Annex Lot,2401 S 35th St,Tacoma,WA,98409,E,47.228866,-122.469105,61683,2013-06-30,J1772,US,private
Pierce County - City Building,930 Tacoma Ave S,Tacoma,WA,98402,E,47.253668,-122.446141,61684,2011-12-01,J1772,US,private
SCH CHILDREN'S #2,4800 Sand Point Way NE Seattle WA 98105,Seattle,WA,98105,E,47.661983,-122.280547,61863,,J1772,US,public
Kitsap Transit WA Harborside Parking Garage,60 Washington Ave,Bremerton,WA,98337,E,47.563581,-122.625317,61877,2013-12-31,J1772,US,public
BMW TRI-CITIES STATION 01,1201-1299 Aaron Dr,Richland,WA,99352,E,46.260176,-119.280814,61930,,J1772,US,public
Mount Rainier National Park,Highway 706 E,Longmire,WA,98397,E,46.761214,-122.040397,61947,2014-05-22,J1772,US,private
Mount Rainier National Park,55210 238th Ave E,Ashford,WA,98304,E,46.755816,-122.120894,61948,2019-07-15,J1772,US,private
Semiahmoo Resort,9565 Semiahmoo Pkwy,Blaine,WA,98230,E,48.989751,-122.773271,62286,2014-04-01,J1772,US,public
Pybus Public Market,7 N Worthen St,Wenatchee,WA,98801,E,47.425375,-120.307608,62516,2014-07-07,J1772,US,public
UDR ASHTON BELL #2,10710 NE 10th St,Bellevue,WA,98004,E,47.619772,-122.197194,62654,,J1772,US,public
Best Western Plus - Heritage Inn,151 E McLeod Rd,Bellingham,WA,98226,E,48.783478,-122.484131,62692,2014-03-21,J1772,US,public
UDR TEN20 #1,10710 Northeast 10th Street,Bellevue,WA,98004,E,47.61984,-122.19603,62728,,J1772,US,public
AMLI SLU AMLI SLU #1,1250-1282 Republican St,Seattle,WA,98109,E,47.62313,-122.331442,62796,,J1772,US,public
City of Chelan,137 E Johnson Ave,Chelan,WA,98816,E,47.840838,-120.018402,62973,2014-08-18,J1772,US,public
LCC LCC H&S #1,1810 Maple Street,Longview,WA,98632,E,46.141922,-122.940192,63088,,J1772,US,public
UWMC UWMC #1,3100 Northup Way,Bellevue,WA,98004,E,47.638269,-122.191294,63110,,J1772,US,public
MI SCHOOLS MERCER HIGH #1,8932-8998 SE 42nd St,Mercer Island,WA,98040,E,47.571306,-122.218887,63198,,J1772,US,public
REO FAST CHARGER,1525 14th Ave,Seattle,WA,98122,E,47.614911,-122.314409,63307,,CHADEMO,US,public
UWMC 4245 UWMC 4245 #1,4245 Roosevelt Ave NE,Seattle,WA,98105,E,47.658961,-122.3185,63313,,J1772,US,public
UWMC 4225 UWMC 4225 #1,4225 Roosevelt Way NE,Seattle,WA,98105,E,47.658409,-122.318392,63338,,J1772,US,public
Esplanade Street Parking,220 N Oak St,Port Angeles,WA,98362,E,48.120933,-123.434437,63424,2014-02-01,J1772 NEMA1450,US,public
Town Nissan,555 3rd St SE,East Wenatchee,WA,98802,E,47.400783,-120.279071,63444,2010-12-17,CHADEMO J1772,US,public
Town Nissan,555 3rd St SE,East Wenatchee,WA,98802,E,47.400783,-120.279071,63445,2010-12-17,J1772,US,private
MAIN HOSPITAL SILVER PARKING,11300-11398 128th Ave NE,Kirkland,WA,98034,E,47.716056,-122.179455,63780,,J1772,US,public
MAIN HOSPITAL DEYOUNG1,12039 NE 128th St,Kirkland,WA,98034,E,47.714435,-122.179399,63781,,J1772,US,public
MAIN HOSPITAL BLUE PARKING,12040 NE 128th St,Kirkland,WA,98034,E,47.714793,-122.176869,63782,,J1772,US,public
Leskovar Mitsubishi,3020 W Clearwater Ave,Kennewick,WA,99336,E,46.213233,-119.162367,64135,2014-03-01,J1772,US,public
BMW SEATTLE BMW SALES,601-699 S Plummer St,Seattle,WA,98134,E,47.594042,-122.323977,64185,,J1772,US,public
HARBOUR POINT HBP STATION A,11700 Mukilteo Speedway,Mukilteo,WA,98275,E,47.890423,-122.286971,64475,,J1772,US,public
Mellisoni Vineyard,3155 US 97A,Chelan,WA,98816,E,47.83522282,-120.0689834,64500,2014-11-29,J1772,US,public
Sound Ford,101 SW Grady Way,Renton,WA,98057,E,47.47015,-122.218765,64703,2014-12-01,J1772,US,public
1551 EASTLAKE A ARE 1551 #1,1551 Eastlake Ave E,Seattle,WA,98102,E,47.633703,-122.325837,65035,,J1772,US,public
Cathcart Station,8915 Cathcart Way,Snohomish,WA,98296,E,47.872727,-122.129049,65056,2011-03-01,J1772,US,private
901 FIFTH F LEVEL,901 5th Ave,Seattle,WA,98164,E,47.605816,-122.331975,65241,,J1772,US,public
1616 EASTLAKE ARE 1616 #1,1616 Eastlake Ave E,Seattle,WA,98102,E,47.634438,-122.324583,65267,,J1772,US,public
Snoqualmie Casino,37500 SE N Bend,Issaquah,WA,98065,E,47.519113,-121.841787,65414,2015-01-01,J1772,US,public
Wenatchee - Wenatchee Convention Center,200 N Columbia St,Wenatchee,WA,98801,E,47.42758,-120.31231,65859,,CHADEMO J1772,US,public
I-5 Gee Creek NB Rest Area,"Interstate 5, Milepost 11 North",Ridgefield,WA,98642,E,45.77671,-122.669,65860,,J1772,US,public
Centralia - Wendy's,817 Harrison Avenue,Centralia,WA,98531,E,46.725274,-122.974224,65861,,CHADEMO J1772,US,public
Bellingham - Sehome Village,222 36th St,Bellingham,WA,98325,E,48.731457,-122.470706,65862,,CHADEMO J1772,US,public
Castle Rock - Cascade Select Market,204 W. Cowlitz Street,Castle Rock,WA,98611,E,46.276122,-122.910167,65864,,CHADEMO J1772,US,public
Burlington - The Outlet Shoppes,448 Fashion Way,Burlington,WA,98233,E,48.457448,-122.335866,65865,,CHADEMO J1772,US,public
Ridgefield - Country Café,6370 N. 1st Circle,Ridgefield,WA,98642,E,45.817526,-122.683594,65866,,CHADEMO J1772,US,public
I-5 Custer SB Rest Area,3063 Creasy Rd,Custer,WA,98240,E,48.927904,-122.648343,65868,,J1772,US,public
Skykomish - Sky Deli,148 5th Street N,Skykomish,WA,98288,E,47.711268,-121.360495,65869,,CHADEMO J1772,US,public
I-5 Gee Creek NB Rest Area,"Interstate 5, Milepost 11 South",Ridgefield,WA,98642,E,45.77671,-122.669,65870,,J1772,US,public
525 NORTHGATE RETAIL #1,525 NE Northgate Way,Seattle,WA,98125,E,47.707951,-122.321496,66221,,J1772,US,public
Power Trip Energy Corp,83 Denny Ave,Port Townsend,WA,98368,E,48.093634,-122.813252,66418,2012-06-01,J1772,US,public
John L Scott Real Estate,2219 W Sims Way,Port Townsend,WA,98368,E,48.102409,-122.80229,66419,2015-02-01,J1772,US,public
Port Townsend Laundromat & Car Wash,2115 W Sims Way,Port Townsend,WA,98368,E,48.102881,-122.800407,66420,2015-02-01,J1772,US,private
GreenPod Development,1531 W Sims Way,Port Townsend,WA,98368,E,48.103061,-122.794143,66421,2015-02-03,J1772,US,public
Windermere Real Estate,1220 Water St,Port Townsend,WA,98368,E,48.113018,-122.760544,66422,2015-02-04,J1772,US,public
HAMPTON INN WEST BACK,11505 NE 2nd Pl,Bellevue,WA,98004,E,47.611711,-122.187292,66594,,J1772,US,public
SIA GARAGE F1,9000 W Airport Dr,Spokane,WA,99224,E,47.625092,-117.53956,66622,,J1772,US,public
MAIN HOSPITAL SILVER #2,12001-12099 NE 130th Ln,Kirkland,WA,98034,E,47.716066,-122.179613,66645,,J1772,US,public
WINSLOW WAY WINSLOW #1,232-240 Winslow Way E,Bainbridge Island,WA,98110,E,47.624921,-122.51934,66696,,J1772,US,public
The Co-Op Farm and Garden,216 E Washington St,Sequim,WA,98382,E,48.079897,-123.098996,67125,2015-01-01,J1772,US,public
VISITOR GARAGE PEDESTAL UNIT,1201 Pacific Ave,Tacoma,WA,98402,E,47.252117,-122.437452,67692,,J1772,US,public
HOMEWOOD SUITES HOMEWOOD #1,1484 Hyla Ave NW,Issaquah,WA,98027,E,47.547088,-122.065336,68187,,J1772,US,public
Banks Lake Brew and Bistro,695 N 2nd St,Coulee City,WA,99115,E,47.616684,-119.287843,68846,2015-08-03,J1772,US,public
VM CHARGERS VIRGINIA MASON2,1012 Terry Ave,Seattle,WA,98101,E,47.609528,-122.326393,68940,,J1772,US,public
CHARGEPOINT T&C BAINBRIDGE,343 Winslow Way E,Bainbridge Island,WA,98110,E,47.62419,-122.517509,69209,,J1772,US,public
INSIGNIA 953 EV216,588 Bell St,Seattle,WA,98121,E,47.616571,-122.342673,69853,,J1772,US,public
UWB CASCADIA CC TRULY HOUSE #1,18140 Campus Way NE,Bothell,WA,98011,E,47.759501,-122.193075,70092,,J1772,US,public
UWB CASCADIA CC SOUTH DUAL #2,11237-11299 NE 180th St,Bothell,WA,98011,E,47.757842,-122.190719,70095,,J1772,US,public
COLLEGE HALL CROSBY HOUSE,508 E Sharp Ave,Spokane,WA,99202,E,47.669044,-117.402594,70235,,J1772,US,public
Best Western Plus - Evergreen Inn and Suites,32124 25th Ave S,Federal Way,WA,98003,E,47.313989,-122.300707,71773,2019-06-28,J1772,US,public
Best Western Plus - Tacoma Dome Hotel,2611 East E St,Tacoma,WA,98421,E,47.238785,-122.426722,71774,2015-12-01,J1772,US,public
ESSEX SAMMAMISH VIEW,16160 SE Eastgate Way,Bellevue,WA,98008,E,47.577051,-122.125164,71918,,J1772,US,public
MADISON GARAGE MADISON GARAGE2,1229 Madison St,Seattle,WA,98104,E,47.610087,-122.322114,72656,,J1772,US,public
Expo Apartments,118 Republican St,Seattle,WA,98109,E,47.6232795,-122.354922,72739,2016-01-25,J1772,US,public
Terex Aerial Work Platforms,6464 185th Ave NE,Redmond,WA,98052,E,47.6633515,-122.0932594,73113,2016-01-25,J1772,US,public
KING COUNTY DOT BURIEN P&R #5,14900 4th Ave SW,Burien,WA,98166,E,47.469258,-122.338762,73197,,J1772,US,public
SIA CELL LOT,8909 W Airport Dr,Spokane,WA,99224,E,47.630989,-117.540534,73219,,J1772,US,public
Tumwater - Shell Station & Deli Mart,6131 Capital Blvd SW,Tumwater,WA,98501,E,46.99353,-122.908081,73412,,CHADEMO J1772,US,public
Leavenworth - City Hall,700 US Hwy 2,Leavenworth,WA,98826,E,47.59501,-120.664684,73413,,CHADEMO J1772,US,public
Sultan - Sultan Visitor Information Center,320 Main St,Sultan,WA,98294,E,47.862157,-121.816597,73415,,CHADEMO J1772,US,public
Cle Elum,3600 Suncadia Trail,Cle Elum,WA,98922,E,47.208469,-121.019582,73431,,CHADEMO J1772,US,public
Snoqualmie - Snoqualmie Pass Chevron,519 SR 906,Snoqualmie Pass,WA,98068,E,47.42094,-121.4113,73433,,CHADEMO J1772,US,public
Performance Kia,229 SW Everett Mall Way,Everett,WA,98204,E,47.906308,-122.237601,74196,2016-01-01,CHADEMO J1772COMBO,US,public
Bedrooms & More,300 NE 45th St,Seattle,WA,98105,E,47.66159,-122.324877,74301,2011-10-01,J1772,US,public
UWB CASCADIA CC BEARDSLEE #1,19121 112th Ave NE,Bothell,WA,98011,E,47.766921,-122.191941,74717,,J1772,US,public
NISSAN-EVERETT DC STATION 1,10500 Evergreen Way,Everett,WA,98204,E,47.90271,-122.246889,75094,,CHADEMO J1772COMBO,US,public
SAFECO PLAZA SAFECO PLAZA #1,1001 4th Ave Safeco Plaza,Seattle,WA,98154,E,47.606106,-122.333782,75391,,J1772,US,public
City of Tacoma - Fleet Operations,3639 S Pine St,Tacoma,WA,98409,E,47.225367,-122.47265,75723,2011-11-30,J1772,US,private
City of Tacoma - Solid Waste Management,3510 S Mullen St,Tacoma,WA,98409,E,47.231312,-122.501372,75724,2011-11-30,J1772,US,private
Nissan of Kirkland,11930 124th Ave NE,Kirkland,WA,98034,E,47.707294,-122.174855,75997,2016-05-01,CHADEMO J1772,US,public
Nissan of Kirkland,11930 124th Ave NE,Kirkland,WA,98034,E,47.707294,-122.174855,76084,2016-05-01,J1772,US,private
Washington Department of Transportation - Parking Garage,310 Maple Park Ave SE,Olympia,WA,98501,E,47.034344,-122.89857,76251,2014-06-01,CHADEMO,US,private
Lee Johnson Kia,11845 NE 85th St,Kirkland,WA,98033,E,47.677725,-122.182402,76253,2015-08-01,CHADEMO J1772COMBO,US,public
City of Seattle - Charles Street Fuel,1040 7th Ave S,Seattle,WA,98134,E,47.593875,-122.323801,76254,2016-06-03,CHADEMO,US,private
MI SCHOOLS NORTHWOOD #1,4030 86th Ave SE,Mercer Island,WA,98040,E,47.573641,-122.223648,76839,,J1772,US,public
TRANS SERVICES TERRELL,Terrell Parking Garage Cougar Way,Pullman,WA,99163,E,46.732394,-117.164374,76857,,J1772,US,public
TRANS SERVICES SCUE,Smith Center Parking Garage Stadium Way,Pullman,WA,99163,E,46.729675,-117.161393,76858,,J1772,US,public
BMW NORTHWEST STATION 01,4011 20th St E,Fife,WA,98424,E,47.2398,-122.374201,76926,,J1772,US,public
WASHINGTON ST LACONNER #1,100 Washington Ave,La Conner,WA,98257,E,48.391109,-122.496837,76993,,J1772,US,public
THE REGENT STATION 1,10600 NE 29th St,Bellevue,WA,98004,E,47.637039,-122.199118,77221,,J1772,US,public
THE SHOPS SHOPSONCENTRAL,301 S Central Ave,Quincy,WA,98848,E,47.235171,-119.853809,77443,,J1772,US,public
LONGACRES LONGACRES A #1,1201 SW 27th St,Renton,WA,98057,E,47.456345,-122.238957,77572,,J1772,US,public
LONGACRES LONGACRES B #1,2921 Naches Ave SW,Renton,WA,98057,E,47.455344,-122.238855,77573,,J1772,US,public
LONGACRES LONGACRES A #2,2715 Naches Ave SW,Renton,WA,98057,E,47.45641,-122.238981,77574,,J1772,US,public
LONGACRES LONGACRES B #2,29210Naches Ave SW,Renton,WA,98057,E,47.455189,-122.238893,77575,,J1772,US,public
NBK Bremerton / N68436-B107-1,Burwell at Park Ave,Bremerton,WA,98314,E,47.56415,-122.630287,77670,2016-08-15,J1772,US,private
NBK Bremerton / N68436-B850A,1402 Farragut Ave,Bremerton,WA,98314,E,47.5501,-122.6401,77671,2016-08-15,J1772,US,private
NBK Bremerton / N68436-B850,1401 Farragut Ave,Bremerton,WA,98314,E,47.5501,-122.6401,77674,2016-08-15,NEMA515,US,private
Washington State University - Pullman Plant Materials Center,Johnson Hall 113,Pullman,WA,99164,E,46.731746,-117.157928,77678,2016-08-15,J1772,US,private
TwispWorks,503 S Glover St,Twisp,WA,98856,E,48.362102,-120.121376,77771,2016-08-05,J1772,US,public
Wellspring Spa at Mount Rainier,54922 Kernahan Rd E,Ashford,WA,98304,E,46.759919,-121.981984,77990,2016-08-14,NEMA1450,US,public
PSS CHARGEPOINT PSS #2 NORTH,801 Rainier Ave S,Seattle,WA,98144,E,47.595546,-122.31163,78230,,J1772,US,public
PSS CHARGEPOINT PSS #1,807 Rainier Ave S,Seattle,WA,98144,E,47.595392,-122.311507,78231,,J1772,US,public
SOUND TRANSIT ANGLE LAKE #2,2702 S 200th St,SeaTac,WA,98188,E,47.423319,-122.298723,78570,,J1772,US,public
SOUND TRANSIT ANGLE LAKE #4,2702 S 200th St,SeaTac,WA,98198,E,47.42327,-122.298719,78571,,J1772,US,public
Town of Concrete - Park and Ride,7503 N Superior,Concrete,WA,98237,E,48.537035,-121.758653,78783,2016-11-01,J1772,US,public
BMW SEATTLE DC FAST 02,1002 Airport Way S.,Seattle,WA,98134,E,47.594294,-122.324845,78795,,J1772COMBO,US,public
KENT STATION KENT STATION #2,301-383 1st Ave N,Kent,WA,98032,E,47.383945,-122.233653,78874,,J1772,US,public
Ferry County Public Utility District,686 S Clark Ave,Republic,WA,99166,E,48.64698,-118.737542,79167,2016-10-15,J1772,US,public
Chelan County Public Utility District,327 N Wenatchee Ave,Wenatchee,WA,98801,E,47.429582,-120.315228,79230,2016-10-03,J1772,US,public
BASTYR UNIV BASTYR DUAL #1,1 Juanita Dr NE,Kenmore,WA,98028,E,47.731215,-122.249567,79238,,J1772,US,public
Walla Walla Park,River Park Ave E,Wenatchee,WA,98801,E,47.442921,-120.316235,79414,2016-10-28,J1772,US,public
DUAL EV SOUTH 1,2616 NE 46th St,Seattle,WA,98105,E,47.661471,-122.299298,79670,,J1772,US,public
KING COUNTY DOT KSC STATION #5,253-295 S Jackson St,Seattle,WA,98104,E,47.599,-122.330804,79748,,J1772,US,public
KING COUNTY DOT BURIEN P&R #8,14901 4th Ave SW,Burien,WA,98166,E,47.469303,-122.338464,79752,,J1772,US,public
RSS-1 RSS #1,485 Rainier Blvd N,Issaquah,WA,98027,E,47.534915,-122.037552,79902,,J1772,US,public
RPNW PSP-COBB #2,1325 4th Ave,Seattle,WA,98101,E,47.60872,-122.336023,79957,,J1772,US,public
GARAGE COMMERCIAL ST 2,1300 Commercial St,Bellingham,WA,98225,E,48.750857,-122.479518,80022,,J1772,US,public
TRANS SERVICES PACCAR,2000 Grimes Way,Pullman,WA,99164,E,46.729734,-117.156333,80116,,J1772,US,public
LINC SQUARE EXP LSE P2 #2,432-492 Bellevue Way NE,Bellevue,WA,98004,E,47.614294,-122.201255,81023,,J1772,US,public
LINC SQUARE EXP P5 1,410 Bellevue Way NE,Bellevue,WA,98004,E,47.614098,-122.200729,81024,,J1772,US,public
Skagit General Store,500 Newhalem St,Rockport,WA,98283,E,48.6735,-121.244711,81080,2019-10-26,J1772,US,public
Leavenworth Fish Hatchery,12790 Fish Hatchery Rd,Leavenworth,WA,98826,E,47.558592,-120.675803,81081,2016-08-01,J1772,US,public
Lincoln County Museum,600 7th St,Davenport,WA,99122,E,47.652922,-118.150361,81083,2016-10-01,J1772,US,public
Softechnologies,1504 W Northwest Blvd,Spokane,WA,99205,E,47.6789249,-117.4343555,81162,2016-07-15,J1772,US,public
MERCER ISLAND CITY HALL #1,9611 SE 36th St City Hall,Mercer Island,WA,98040,E,47.577257,-122.209818,81587,,J1772,US,public
UW TACOMA 6215 UW TAC LIB 1,1901 Jefferson Ave,Tacoma,WA,98402,E,47.244229,-122.438869,81742,,J1772,US,public
Kitsap Transit-George’s Corner Park & Ride,27618 Hansville Rd. NE,Kingston,WA,98346,E,47.812524,-122.540217,81779,2017-02-01,J1772,US,public
Kitsap Transit - Harper Church,10384 SE Sedgwick Rd.,Port Orchard,WA,98366,E,47.504444,-122.516388,81780,2017-02-01,J1772,US,public
Kitsap Transit - Poulsbo Office,21711 Vetter Rd NW,Poulsbo,WA,98370,E,47.760676,-122.649657,81782,2017-02-01,J1772 NEMA520,US,private
LONG BEACH STATION 1,406 Oregon Ave S,Long Beach,WA,98631,E,46.349339,-124.05352,82155,,J1772,US,public
SAMMAMISH SAMM VILLAGE #1,301 - 228th Avenue SE,Sammamish,WA,98074,E,47.605953,-122.037391,82271,,J1772,US,public
THE SUMMIT THE SUMMIT - P2,10885 NE 4th St,Bellevue,WA,98004,E,47.613367,-122.194775,82346,,J1772,US,public
City of Bridgeport - City Hall,1206 Columbia Ave,Bridgeport,WA,98813,E,48.009356,-119.672953,82396,2017-04-01,J1772,US,public
City of Tonasket - City Hall,209 N Whitcomb,Tonasket,WA,98855,E,48.705586,-119.438406,82397,2017-04-01,J1772,US,public
Y.V.M.H. SOUTH PARKING-2,2811 Tieton Dr,Yakima,WA,98902,E,46.593467,-120.546957,82447,,J1772,US,public
ESSEX BELLCENTERE 01,10822 NE 2nd Pl,Bellevue,WA,98004,E,47.612468,-122.194308,82499,,J1772,US,public
SAMMAMISH SAM VILLAGE #2,22612 SE 4th St,Sammamish,WA,98074,E,47.606215,-122.037426,82585,,J1772,US,public
Confluence Technology Center,285 Technology Center Way,Wenatchee,WA,98801,E,47.463409,-120.331529,82593,2017-05-15,J1772,US,public
Rocky Reach Dam Visitor Center,6151 US 97 Alternate,Wenatchee,WA,98801,E,47.531819,-120.300871,82594,2017-05-15,J1772,US,public
Sound Ford,101 SW Grady Way,Renton,WA,98057,E,47.47015,-122.218765,82775,2017-05-01,J1772,US,private
LONGACRES GH BLDG D2,1200 SW 27th St,Renton,WA,98057,E,47.457789,-122.234884,82782,,J1772,US,public
LONGACRES CH BLDG C 2,1300 SW 27th St,Renton,WA,98057,E,47.457807,-122.238226,82783,,J1772,US,public
MI SCHOOLS ISLANDER #1,7447 84th Ave SE,Mercer Island,WA,98040,E,47.536394,-122.228059,82787,,J1772,US,public
City of Seattle - Sunny Jim,4200 Airport Way S,Seattle,WA,98134,E,47.565076,-122.32205,85410,2017-04-01,J1772,US,private
City of Seattle - SeaPark Garage,609 6th Ave,Seattle,WA,98124,E,47.604394,-122.328735,85411,2017-04-01,J1772,US,private
City of Seattle - Seattle Department of Transportation,9200 8th Ave SW,Seattle,WA,98106,E,47.520043,-122.344155,85412,2017-04-01,J1772,US,private
City of Seattle - North Precinct,10049 Collget Way N,Seattle,WA,98133,E,47.702714,-122.334822,85413,2017-04-01,J1772,US,private
City of Seattle - South Precinct,3001 S Myrtle St,Seattle,WA,98108,E,47.538387,-122.293403,85414,2017-04-01,J1772,US,private
City of Seattle - Cedar Falls,19901 Cedar Falls Rd SE,North Bend,WA,98045,E,47.42101,-121.791179,85415,2017-04-01,J1772,US,private
Kitsap Transit Charleston Blvd,200 Charleston Blvd,Bremerton,WA,98312,E,47.561388,-122.654166,85477,2017-05-01,J1772,US,public
BELLEVUE DOWNTOWN PARK 2,10201 NE 4th St,Bellevue,WA,98004,E,47.61309,-122.206569,85540,,J1772,US,public
SKAGIT STATION SS1,105 E Kincaid St,Mount Vernon,WA,98273,E,48.418198,-122.334391,85568,,J1772,US,public
GCU STATION 1,1500 W 4th Ave,spokane,WA,99201,E,47.652783,-117.434917,85907,,J1772,US,public
400 DEXTER AVE 400 DEXTER 1,400 Dexter Ave N,Seattle,WA,98109,E,47.622264,-122.342164,86014,,J1772,US,public
Bellevue Nissan,14762 SE Eastgate Way,Bellevue,WA,98007,E,47.580655,-122.143364,86025,2017-03-01,J1772,US,public
ALOFT ALOFT ELEMENT 2,2752-2836 152nd Ave NE,Redmond,WA,98052,E,47.635607,-122.137229,86099,,J1772,US,public
UWB CASCADIA CC SOUTH DUAL 3,South Parking GarageCampus Way NE,Bothell,WA,98011,E,47.757838,-122.190947,86225,,J1772,US,public
RPNW IBM #1,1200 5th Ave,Seattle,WA,98101,E,47.608495,-122.333054,86298,,J1772,US,public
DEPT OF ECOLOGY HQ 1,300 Desmond DR SE,Lacey,WA,98516,E,47.047828,-122.806526,86920,,J1772,US,public
E_SOFI SOFI #1,13180 SE Newport Way,Bellevue,WA,98006,E,47.571386,-122.164808,86962,,J1772,US,public
BELLEVUE SQUARE BELL SQ NORTH 1,Bellevue Square - North Building104th Ave NE,Bellevue,WA,98004,E,47.616971,-122.203009,87711,,J1772,US,public
MERCER ISLAND MI COMMUN CTR,8236 SE 24th MI Community Center,Mercer Island,WA,98040,E,47.590057,-122.228541,87937,,J1772,US,public
LINK Transit,300 S Columbia St,Wenatchee,WA,98801,E,47.4175735,-120.317166,87947,2018-03-08,,US,private
DC CORRIDOR WALLYPARKDC1,18613 International Blvd,SeaTac,WA,98188,E,47.436233,-122.296635,88018,,CHADEMO J1772COMBO,US,public
COLLEGE HALL PARKING GARAGE,821 E Boone Ave,Spokane,WA,99202,E,47.668201,-117.397214,88084,,J1772,US,public
CAR CHARGER #1 SOMA DUAL 1,288 106th Ave NE,Bellevue,WA,98004,E,47.612754,-122.198497,88290,,J1772,US,public
PUBLIC WORKS 1 MARITIME PIER,3025 Harborview Dr,Gig Harbor,WA,98335,E,47.329291,-122.578979,88546,,J1772,US,public
DUAL EV SOUTH 2,2623 NE University Village St,Seattle,WA,98105,E,47.661361,-122.298284,88696,,J1772,US,public
PARK77 PARK77 C,20227 77th Ave NE,Arlington,WA,98223,E,48.180175,-122.12563,88777,,J1772,US,public
PUBLIC WORKS 1 GH FINHOLM 1,8828-8844 N Harborview Dr,Gig Harbor,WA,98332,E,47.339342,-122.590314,88827,,J1772,US,public
KIRKLAND MARINA PARK 1,9 Lakeshore Plaza,Kirkland,WA,98033,E,47.675365,-122.2075,88830,,J1772,US,public
Jefferson Transit Authority Four Corners Park N Ride,63 Four Corners,Port Townsend,WA,98368,E,48.050029,-122.818654,92107,2018-01-01,J1772,US,public
"Kitsap Transit - North Viking Poulsbo Park N Ride, WA",21711 Vetter Rd NW,Poulsbo,WA,98370,E,47.75946,-122.661047,92108,2018-01-01,J1772,US,public
FACTORIA EV KAMBER ROAD,13545 SE 26th St,Bellevue,WA,98005,E,47.587,-122.159356,92251,,J1772,US,public
SECURITIES BLDG STATION 1,1913 4th Ave,Seattle,WA,98101,E,47.612407,-122.339426,92369,,J1772,US,public
DC CORRIDOR CENTRAL SEA COL,1609 Harvard Ave,Seattle,WA,98122,E,47.615553,-122.32285,92472,,CHADEMO J1772COMBO,US,public
EDMONDSNISSAN COMMERCIAL 2,24015 84th Ave W,Edmonds,WA,98026,E,47.781357,-122.34569,92487,,CHADEMO J1772COMBO,US,public
Redmond Town Center,7525 166th Ave NE,Redmond,WA,98052,E,47.67137,-122.11949,93088,,CHADEMO J1772 J1772COMBO,US,public
REI,222 Yale Ave N,Seattle,WA,98109,E,47.62066,-122.32952,93146,,CHADEMO J1772 J1772COMBO,US,public
Conoco,1293 S Division St,Ritzville,WA,99169,E,47.118605,-118.365561,93172,,CHADEMO J1772COMBO,US,public
Tacoma Mall,4502 S Steele St,Tacoma,WA,98409,E,47.21543,-122.47068,93339,,CHADEMO J1772 J1772COMBO,US,public
Seattle Premium Outlets,10600 Quil Ceda Blvd,Marysville,WA,98271,E,48.09264,-122.1897,93343,,CHADEMO J1772COMBO,US,public
North Bend Premium Outlets,461 S Fork Ave SW,North Bend,WA,98045,E,47.49132,-121.79308,93352,,CHADEMO J1772COMBO,US,public
Northgate Mall,401 NE Northgate Way,Seattle,WA,98125,E,47.7033,-122.32519,93364,,CHADEMO J1772COMBO,US,public
Harvard Market,1406 Harvard Ave,Seattle,WA,98122,E,47.613457,-122.321919,93443,,CHADEMO J1772COMBO,US,public
The Landing,828 N 10th Pl,Renton,WA,98057,E,47.49845,-122.20461,93483,,CHADEMO J1772COMBO,US,public
Walmart,1486 Dike Access Rd,Woodland,WA,98674,E,45.92845,-122.76205,93531,,CHADEMO J1772COMBO,US,public
New Seasons,2755 77th Ave SE,Mercer Island,WA,98040,E,47.58489,-122.23611,93550,,CHADEMO J1772COMBO,US,public
AAA,3000 196th St SW,Lynnwood,WA,98036,E,47.820568,-122.273567,93552,,CHADEMO J1772COMBO,US,public
San Juan Islands Conservation District,530 Guard St,Friday Harbor,WA,98250,E,48.536489,-123.021351,93840,2015-01-01,J1772,US,public
Avalon Business Park,322 Daniel Ln,Friday Harbor,WA,98250,E,48.514655,-123.028884,93841,2017-01-01,J1772,US,public
Earthbox Inn and Spa,410 Spring St,Friday Harbor,WA,98250,E,48.532963,-123.019311,93842,2016-01-01,J1772,US,public
Friday Harbor Grand Bed and Breakfast,345 Blair Ave,Friday Harbor,WA,98250,E,48.532844,-123.021001,93843,2017-01-01,J1772,US,public
Sweet Earth Farm,16 Sweet Earth Ln,Friday Harbor,WA,98250,E,48.561173,-123.164341,93844,2017-01-01,J1772,US,public
Odd Fellows Hall,112 Haven Rd,Eastsound,WA,98245,E,48.692979,-122.904798,93846,2017-01-01,J1772,US,public
Rosario Resort,410 Ocean Mist Way,Eastsound,WA,98245,E,48.648792,-122.868418,93847,2016-01-01,J1772,US,public
Doe Bay Resort,107 Doe Bay Rd,Olga,WA,98279,E,48.641279,-122.781015,93848,2016-01-01,J1772,US,public
Lopez Island Library,2225 Fisherman Bay Rd,Lopez,WA,98261,E,48.521863,-122.909571,93849,2016-01-01,J1772,US,public
Lopez Community Land Trust,25 Tuatara Rd,Lopez,WA,98261,E,48.530774,-122.914874,93850,2016-01-01,J1772,US,public
CENTRAL PIERCE CPFR 60 1,17520 22nd Ave E,Spanaway,WA,98445,E,47.097774,-122.40071,94623,,J1772,US,public
CENTRAL PIERCE CPFR 60 2,17520 22nd Ave East,Spanaway,WA,98387,E,47.097232,-122.401627,94624,,J1772,US,public
RPNW FC #1,319 University St,Seattle,WA,98101,E,47.608017,-122.335273,94715,,J1772,US,public
Costco,999 Lake Dr,Issaquah,WA,98027,E,47.54894,-122.04991,94884,2018-03-01,J1772,US,public
Hampton Inn,17770 NE 78th Pl,Redmond,WA,98053,E,47.673951,-122.103591,94885,2017-01-06,J1772,US,public
Hampton Inn,19211 Woodinville Snohomish Rd,Woodinville,WA,98072,E,47.767496,-122.155194,94886,2017-10-12,J1772,US,public
FRED MEYER - #095 Everett,8530 Evergreen Way,Everett,WA,98204,E,47.919531,-122.232309,95048,,J1772,US,public
Clark Public Utilities - Administration Building,1200 Fort Vancouver Way,Vancouver,WA,98663,E,45.629398,-122.663254,95063,,CHADEMO,US,public
MasterPark Valet Garage,16826 International Blvd,SeaTac,WA,98188,E,47.451709,-122.295497,95110,,J1772,US,public
Thurston County Juvenile Court,1520 Irving St SW,Tumwater,WA,98512,E,47.023179,-122.922337,95134,,J1772,US,public
FRED MEYER - #688 Alderwood,2902 164th Street SW,Lynnwood,WA,98037,E,47.84839,-122.27274,95160,,J1772,US,public
305 2nd Street Location,305 2nd Street,Langley,WA,98260,E,48.039928,-122.409736,95219,,J1772,US,public
Olympic College,1600 Chester Ave,Bremerton,WA,98337,E,47.575355,-122.634233,95250,,J1772,US,private
Port of Poulsbo,19133 Jensen Way NE,Poulsbo,WA,98370,E,47.736632,-122.647204,95259,,J1772,US,public
FRED MEYER - #608 Ballard,915 NW 45th St,Seattle,WA,98107,E,47.660259,-122.369174,95279,,J1772,US,public
The Landmark Business Office,1601 East Valley Rd,Renton,WA,98057,E,47.4654,-122.220917,95338,,J1772,US,public
Everett Community College,"2000 Tower St, Maintenance Bldg 105",Everett,WA,98201,E,48.0067833,-122.2027667,95356,,J1772,US,public
Haselwood Family YMCA Silverdale,3909 NW Randall Way,Silverdale,WA,98383,E,47.65265,-122.695072,95368,,CHADEMO J1772,US,public
PSEJATC,550 SW 7th St,Renton,WA,98057,E,47.474171,-122.224102,95459,,J1772,US,public
Skagit Valley College,2405 E. College Way,Mt. Vernon,WA,98273,E,48.436423,-122.3088327,95464,,J1772,US,public
Bellevue College - Garage,3000 Landerholm Cir SE,Bellevue,WA,98007,E,47.585655,-122.147284,95496,,J1772,US,public
FRED MEYER - #023 Bellevue,2041 148TH NE,Bellevue,WA,98007,E,47.629331,-122.144051,95499,,J1772,US,public
Legacy Salmon Creek Hospital,2211 Northeast 139th Street,Vancouver,WA,98686,E,45.720387,-122.648554,95594,,J1772,US,public
Cowlitz County - Public Utility District,961 12th Ave,Longview,WA,98632,E,46.131351,-122.935973,95613,,J1772,US,public
Walgreens Store #7480,1701 Auburn Way S,Auburn,WA,98002,E,47.293216,-122.212814,95621,,CHADEMO J1772,US,public
McLendon Hardware Tacoma,1015 N Pearl St,Tacoma,WA,98406,E,47.25914,-122.514596,95640,,J1772,US,public
King County Housing Authority - Section 8 Office,700 Andover Park W,Tukwila,WA,98188,E,47.44897,-122.25331,95652,,J1772,US,public
First Hill Medical Building,515 Minor Ave,Seattle,WA,98104,E,47.60636,-122.321639,95703,,J1772,US,public
McLendon Hardware,440 Rainier Ave South,Renton,WA,98057,E,47.477362,-122.215347,95749,,J1772,US,public
Sumner School District - Parking Lot,1099 Wood Ave,Sumner,WA,98390,E,47.203981,-122.237313,95831,,J1772,US,public
Olympic Medical Center,939 Caroline Street,Port Angeles,WA,98362,E,48.115251,-123.415521,95845,,J1772,US,public
South Lake Union Discovery Center,101 Westlake Ave N,Seattle,WA,98109,E,47.619185,-122.33888,95858,,J1772,US,public
Meadowbrook Apartments,1408 NW Richmond Beach Road,Shoreline,WA,98177,E,47.769184,-122.37546,95887,,J1772,US,public
4th & Madison,"925 4th Avenue, Suite 400",Seattle,WA,98104,E,47.605192,-122.33285,95913,,J1772,US,public
The Bravern,11111 NE 8th St,Bellevue,WA,98004,E,47.6172869,-122.1919353,95951,,J1772,US,public
Lake Washington Institute of Technology,11605 132nd Ave NE,Kirkland,WA,98034,E,47.704069,-122.167006,95959,,J1772,US,public
Seola Gardens,11195 5th Ave SW,Seattle,WA,98146,E,47.502354,-122.34112,96009,,J1772,US,public
112th & 12th,1100 112th Ave NE,Bellevue,WA,98004,E,47.619989,-122.190555,96076,,J1772,US,public
Harborview Medical Center,908 Jefferson,Seattle,WA,98104,E,47.605477,-122.323427,96090,,J1772,US,public
Harvard Market,1401 Broadway,Seattle,WA,98122,E,47.613498,-122.320931,96214,,J1772,US,public
Seattle Cancer Care Alliance,"825 Eastlake Ave E, LA-104",Seattle,WA,98109,E,47.626531,-122.329993,96241,,J1772,US,public
George F. Russell Jr. Hall,1414 NE 42nd Street,Seattle,WA,98105,E,47.658557,-122.312143,96258,,J1772,US,public
Walgreens Store #12168,3929 Kitsap Way,Bremerton,WA,98312,E,47.56825,-122.66705,96282,,CHADEMO J1772,US,public
Plymouth Congregational Church,1217 6th Avenue,Seattle,WA,98101,E,47.608875,-122.332845,96325,,J1772,US,public
520 Pike Tower,520 Pike St.,Seattle,WA,98101,E,47.611102,-122.334893,96348,,J1772,US,public
Bellevue College - Lot C7 Snoqualmie River Road,3036 Snoqualmie River Road,Bellevue,WA,98005,E,47.58495,-122.15043,96400,,CHADEMO J1772,US,public
Washington State Parks and Recreation Commission,"111 Israel Road SW, PO Box 42650",Tumwater,WA,98512,E,46.984616,-122.905299,96401,,J1772,US,public
FRED MEYER - #460 Salmon Creek,800 NE Tenney Rd,Vancouver,WA,98685,E,45.720603,-122.663135,96405,,CHADEMO J1772,US,public
FRED MEYER - #391 Totem Lake,12221 120th Ave NE,Kirkland,WA,98034,E,47.708482,-122.183522,96407,,CHADEMO J1772,US,public
Belfair Log Plaza,23730 NE HWY  3,Belfair,WA,98528,E,47.451373,-122.826865,96411,,J1772,US,public
FRED MEYER - #179 Lake City Way,13000 Lake City Way NE,Seattle,WA,98125,E,47.723689,-122.292383,96412,,CHADEMO J1772,US,public
FRED MEYER - #664 Redmond,17667 NE 76TH ST,REDMOND,WA,98052,E,47.670707,-122.103973,96413,,J1772,US,public
FRED MEYER - #682 Maple Valley,26520 Maple Valley Black Diamond Road SE,Maple Valley,WA,98038,E,47.362455,-122.017988,96415,,J1772,US,public
FRED MEYER - #172 Kent,10201 SE 240th St,Kent,WA,98030,E,47.386392,-122.205393,96418,,J1772,US,public
Lake Union Building,1700 Westlake Ave N,Seattle,WA,98109,E,47.633992,-122.339684,96480,,J1772,US,public
Walgreens Store #7677,1502 Lake Tapps Parkway SE,Auburn,WA,98092,E,47.245269,-122.206909,96505,,CHADEMO J1772,US,public
Clark County - Public Service Center (1st Floor),1300 Franklin Street,Vancouver,WA,98660,E,45.631384,-122.677588,96620,,J1772,US,public
Tahoma Market (I-5 Exit 137),6006 Pacific Highway East,Fife,WA,98424,E,47.24198,-122.348098,96628,,CHADEMO J1772,US,public
DC CORRIDOR SO SEATTLE COL,6000 16th Ave SW,Seattle,WA,98106,E,47.547708,-122.352708,96763,,CHADEMO J1772COMBO,US,public
VM CHARGERS VM BAINBRIDGE 1,1329 Wintergreen Lane Northeast,Bainbridge Island,WA,98110,E,47.637692,-122.513582,96877,,J1772,US,public
King County Housing Authority,2326 North 197th Place,Shoreline,WA,98113,E,47.7725,-122.3315,96904,,J1772,US,public
Multicare Health Systems,17700 SE 272nd Street,Covington,WA,98042,E,47.359935,-122.103668,96971,,J1772,US,private
Highline Community College,2400 S 240th St,Des Moines,WA,98198,E,47.389484,-122.301609,96972,,J1772,US,public
BARKLEY VILLAGE REGAL CINEMA 2,3011 Cinema Pl,Bellingham,WA,98226,E,48.7707,-122.448772,97018,,J1772,US,public
Camaray Motel,1320 Main St,Oroville,WA,98844,E,48.938283,-119.436456,98553,2017-07-01,J1772,US,public
Smokiam Park,334 Daisy St N,Soap Lake,WA,98851,E,47.39125,-119.483647,98554,2017-08-01,J1772,US,public
Mountain View Lodge & Resort,25 Wapato Way,Manson,WA,98831,E,47.883847,-120.154608,98555,2017-10-01,J1772,US,public
Seattle-Tacoma International Airport - Terminal Direct Parking,17801 Pacific Hwy S,Seattle,WA,98188,E,47.443363,-122.296428,98583,2010-03-01,NEMA520,US,public
Bonneville Power Administration,5411 NE Highway 99,Vancouver,WA,98663,E,45.662257,-122.664489,98605,2018-04-01,J1772,US,private
National Park Service - Longmire Administration Building,47015 Paradise Rd E,Ashford,WA,98304,E,46.750241,-121.812778,98666,2018-04-01,J1772,US,private
Environmental Protection Agency,1200 6th Ave,Seattle,WA,98101,E,47.609095,-122.332012,98676,2018-04-01,J1772,US,private
SCAFCO Steel Stud Co,2800 E Main Ave,Spokane,WA,99202,E,47.658731,-117.369055,98721,2020-04-10,J1772,US,public
STADIUMPLACE NEW STATION 7,530 Occidental Ave S,Seattle,WA,98104,E,47.597577,-122.332632,98726,,J1772,US,public
STADIUMPLACE NEW STATION 1,530 Occidental Ave S,Seattle,WA,98134,E,47.597963,-122.332573,98727,,J1772,US,public
BASKIN ROBBINS B-R #1,3010 Harrison Ave NW,Olympia,WA,98502,E,47.047492,-122.939544,98737,,J1772,US,public
DC CORRIDOR N SEA COLLEGE,9600 College Way N,Seattle,WA,98103,E,47.699227,-122.334626,98770,,CHADEMO J1772COMBO,US,public
LHM HONDA STATION 01,1208 W 3rd Ave,Spokane,WA,99201,E,47.653614,-117.430179,98810,,J1772,US,public
North Division Bicycle,10503 N Division,Spokane,WA,99218,E,47.75248,-117.410843,99158,,J1772,US,public
Sacred Heart Hospital,101 W 8th Ave,SPOKANE,WA,99204,E,47.649276,-117.411477,99164,,J1772,US,public
Whitworth University,300 W Hawthorne Rd,Spokane,WA,99251,E,47.753685,-117.417754,99169,,J1772,US,public
Port of Clarkston,849 Port Way,Clarkston,WA,99403,E,46.425498,-117.04865,99171,,J1772,US,public
Rosalia - E 6th St,E 6th St,Rosalia,WA,99170,E,47.234673,-117.370063,99183,,CHADEMO J1772 J1772COMBO,US,public
Mountain Gear Inc,6021 E Mansfield,Spokane Valley,WA,99212,E,47.678576,-117.323186,99198,,J1772,US,public
CITY OF LIBERTY LAKE,22710 E Country Vista Dr,Liberty Lake,WA,99019,E,47.671569,-117.102884,99200,,J1772,US,public
Frencken America Inc,22924 East Apple Way Ave,Liberty Lake,WA,99019,E,47.674738,-117.095839,99224,,J1772,US,public
Rock Pointe,1330 N. Washington St,Spokane,WA,99201,E,47.669621,-117.416241,99230,,J1772,US,public
STCU Valley,13211 E 32nd Ave,Spokane,WA,99216,E,47.628186,-117.227256,99262,,J1772,US,public
Kendall Yards,500 N Cedar St,Spokane,WA,99201,E,47.662679,-117.431811,99263,,CHADEMO J1772 J1772COMBO,US,public
Deer Park Chevron,1100 S Main,Deer Park,WA,99006,E,47.943785,-117.477441,99264,,J1772,US,public
805 156th NE Bellevue WA,805 156th NE,Bellevue,WA,98007,E,47.617634,-122.133439,99270,,J1772,US,public
AGR Olympia,3939 Cleveland Ave.,Olympia,WA,98501,E,47.011089,-122.896054,99273,,J1772,US,public
Avista Pullman,150 E Spring St.,Pullman,WA,99163,E,46.730022,-117.174229,99277,,J1772,US,public
Liberty Lake Park and Ride L2,E. Mission Ave,Liberty Lake,WA,99019,E,47.670514,-117.103246,99280,,J1772,US,public
North Beacon Hill,2535 16th Ave S,Seattle,WA,98144,E,47.58002,-122.312203,99282,,CHADEMO J1772COMBO,US,public
River Park Square,777 W. Spokane Falls Blvd,Spokane,WA,99201,E,47.659958,-117.423498,99283,,J1772,US,public
Huckleberrys Natural Market,926 S Monroe,Spokane,WA,99204,E,47.646364,-117.426718,99285,,J1772,US,public
WA State Dept of Licensing,9107 N Country Homes Blvd,Spokane,WA,99208,E,47.740514,-117.413842,99286,,J1772,US,public
Meadowwood Technology Campus,1421 N Meadowwood ste 200,Liberty Lake,WA,99019,E,47.672469,-117.083613,99288,,J1772,US,public
LNI Bellevue 120th NE,616 120th Aveneue NE,Bellevue,WA,98005,E,47.61541,-122.179484,99293,,J1772,US,public
Kennewick,2901 Southridge Blvd,Kennewick,WA,99337,E,46.180363,-119.188501,99296,,CHADEMO J1772 J1772COMBO,US,public
Ellensburg,269-299 N Main St,Ellensburg,WA,98926,E,46.994236,-120.549197,99297,,CHADEMO J1772 J1772COMBO,US,public
Spokane Community College,1810 N Greene BLDG 8,Spokane,WA,99217,E,47.673158,-117.360474,99298,,J1772,US,public
SFCC,3410 W Fort George Wright Dr,Spokane,WA,99224,E,47.675247,-117.464446,99303,,J1772,US,public
Steam Plant Square,159 S Lincoln,Spokane,WA,99201,E,47.655781,-117.423647,99305,,J1772,US,public
UWB CASCADIA CC SOUTH DUAL 5,Campus Way NE,Bothell,WA,98011,E,47.757824,-122.190681,99405,,J1772,US,public
LINC SQUARE EXP LSS P2 106-107,440 Bellevue Way NE,Bellevue,WA,98004,E,47.614503,-122.201196,99407,,J1772,US,public
LINC SQUARE EXP LSS P2 109-110,424 104th Ave NE,Bellevue,WA,98004,E,47.614311,-122.201051,99408,,J1772,US,public
LINC SQUARE EXP LSS P2 100-101,414 104th Ave NE,Bellevue,WA,98004,E,47.614752,-122.200829,99409,,J1772,US,public
LINC SQUARE EXP LSS P2 92-93,500 Bellevue Way NE,Bellevue,WA,98004,E,47.614649,-122.200751,99410,,J1772,US,public
ELUMINOCITY ZOO OTTER DB57,601 N 59th St,Seattle,WA,98103,E,47.670332,-122.353606,99587,,J1772,US,public
DC CORRIDOR SEAHAWK 12A,338 Weller St Bridge,Seattle,WA,98134,E,47.597446,-122.330456,99591,,CHADEMO J1772COMBO,US,public
PW PARKING PARK PLAZA 01,923 Commerce St,Tacoma,WA,98402,E,47.254518,-122.439253,99620,,J1772,US,public
PW PARKING PKG-PAC PLAZA,1301 Pacific Ave,Tacoma,WA,98402,E,47.251655,-122.437656,99621,,J1772,US,public
QBRC QBRC 1,78 SR 115,Ocean Shores,WA,98569,E,47.042642,-124.170682,99705,,J1772,US,public
PORT VANCOUVER ADMIN,3103 NW Lower River Rd,Vancouver,WA,98660,E,45.643429,-122.704219,99807,,J1772,US,public
BLOCK C LOT 8 STARBUCKS WOODI,13780 NE 175th St,Woodinville,WA,98072,E,47.754851,-122.155601,100012,,J1772,US,public
THE101 EV STATION 01,131 Kirkland Avenue,Kirkland,WA,98033,E,47.675309,-122.205499,100029,,J1772,US,public
ESSEX HIGHLANDS,1460 NE Hawthorne Street,Issaquah,WA,98029,E,47.545075,-122.008911,100055,,J1772,US,public
LeMay-America's Car Museum,2702 E D St,Tacoma,WA,98421,E,47.234898,-122.429536,100242,,CHADEMO J1772 J1772COMBO,US,public
KITSAP COUNTY KITSAP CRTHSE,614 Divison Street,Port Orchard,WA,98366,E,47.537361,-122.638913,100287,,J1772,US,public
BLACKRIVER JSH DUAL #1,923 Powell Ave SW,Renton,WA,98057,E,47.471546,-122.232002,100346,,J1772,US,public
BLACKRIVER BLACKRIVER #3,620 Naches Ave SW,Renton,WA,98057,E,47.474427,-122.233381,100365,,J1772,US,public
CHARGEPOINT CENTRAL MARKET,20148 10th Ave. NE,Poulsbo,WA,98370,E,47.746624,-122.636916,100402,,J1772,US,public
MTE EDMONDS SCHOOL,21975 52nd Ave W,Mountlake Terrace,WA,98043,E,47.798901,-122.3025,100416,,J1772,US,public
Visitor Center - Tesla Supercharger,416 Wishkah Street,Aberdeen,WA,98520,E,46.9767,-123.8135,102483,2017-01-15,TESLA,US,public
Angel of the Winds Casino - Tesla Supercharger,3438 Stoluckquamish Lane,Arlington,WA,98223,E,48.2124,-122.1835,102484,2017-03-01,TESLA,US,public
Fairfield Inn & Suites Burlington - Tesla Supercharger,9384 Old Highway 99 North,Burlington,WA,98233,E,48.5097,-122.3387,102485,2013-06-01,TESLA,US,public
Centralia Outlets - Tesla Supercharger,1200 Lum Rd,Centralia,WA,98531,E,46.7299,-122.9774,102486,2013-06-01,TESLA,US,public
Holiday Inn Express Ellensburg - Tesla Supercharger,1620 Canyon Rd,Ellensburg,WA,98926,E,46.9769,-120.5416,102487,2013-12-15,TESLA,US,public
Fred Meyer - Tesla Supercharger,2811 West 10th Ave.,Kennewick,WA,99336,E,46.198,-119.1627,102488,2015-08-01,TESLA,US,public
Fred Meyer - Tesla Supercharger,2902 164th Street SW,Lynnwood,WA,98087,E,47.8467,-122.2714,102489,2018-07-23,TESLA,US,public
Best Western Plus Bronco Inn - Tesla Supercharger,105 W Galbreath Way,Ritzville,WA,99169,E,47.1163,-118.3683,102491,2014-06-15,TESLA,US,public
Holiday Inn Express & Suites - Tesla Supercharger,1441 E Washington Street,Sequim,WA,98382,E,48.0711,-123.0746,102492,2017-09-01,TESLA,US,public
Fred Meyer Salmon Creek - Tesla Supercharger,800 NE Tenney Road,Vancouver,WA,98685,E,45.7216,-122.6638,102493,2018-07-23,TESLA,US,public
Dan's Food Market - Tesla Supercharger,1329 US-2,Leavenworth,WA,98826,E,47.5985,-120.6561,102594,2018-07-01,TESLA,US,public
Fort Lewis,McKinley Ave & Garfield St,Fort Lewis,WA,98433,E,47.10579,-122.539,102639,2018-09-01,J1772,US,private
Olympic National Park - Sol Duc Hot Springs Resort,12076 Sol Duc Hot Springs Rd,Port Angeles,WA,98363,E,47.96937,-123.86338,103554,2018-09-01,J1772,US,public
Olympic National Park - Sol Duc Hot Springs Resort,12076 Sol Duc Hot Springs Rd,Port Angeles,WA,98363,E,47.96937,-123.86338,103555,2018-09-01,J1772,US,private
DC CORRIDOR NORTHGATE DC1,9800 4th Ave NE,Seattle,WA,98115,E,47.700774,-122.323775,103573,,CHADEMO J1772COMBO,US,public
Yakima,51 Firing Center Rd,Yakima,WA,98901,E,46.677586,-120.47913,103581,,CHADEMO J1772 J1772COMBO,US,public
Pasco,2411 W Court St,pasco,WA,99301,E,46.242178,-119.124215,103586,,CHADEMO J1772 J1772COMBO,US,public
Wandermere,438 E Hasting Rd.,Spokane,WA,99218,E,47.768906,-117.401929,103612,,CHADEMO J1772 J1772COMBO,US,public
FACEBOOK SEA FACEBOOK SEA 6,1101 Dexter Ave N,Seattle,WA,98109,E,47.628509,-122.342643,103652,,J1772,US,public
1101 WESTLAKE FB WESTLAKE 2,1101 Westlake Ave N,Seattle,WA,98109,E,47.6289,-122.341536,103654,,J1772,US,public
TAO FAWU FARM STATION 1,3825 Cabrant Rd,Everson,WA,98247,E,48.893943,-122.280461,103819,,J1772,US,public
STEVENS PASS SPMR DUAL #2,Stevens Pass Mountain Resort,Skykomish,WA,98288,E,47.746319,-121.089984,103884,,J1772,US,public
STEVENS PASS SPMR DUAL #1,Stevens Pass Mountain Resort  Skykomish Washi,Skykomish,WA,98288,E,47.746482,-121.090001,103885,,J1772,US,public
Seabrook Street Parking,169 Blackberry St,Copalis Crossing,WA,98356,E,47.195359,-124.196082,103924,2014-02-01,J1772,US,public
Gull Wing Inn,4852 Pacific Ave,Moclips,WA,98562,E,47.24044,-124.216904,103925,2017-07-01,J1772,US,public
Washington State Department of Ecology - Public Parking Lot,4601 N Monroe St,Spokane,WA,99205,E,47.700624,-117.425573,104058,2018-10-01,J1772,US,public
AMLI MARK 24 MARK 24 1,2428 NW Market St,Seattle,WA,98107,E,47.668955,-122.388808,104162,,J1772,US,public
KIRKLAND MARINA DUAL 2,52 Kirkland Ave,Kirkland,WA,98033,E,47.675556,-122.207383,104227,,J1772,US,public
Ilani Casino Resort,3710 NW 319th St,Ridgefield,WA,98642,E,45.852337,-122.708397,104265,2018-10-01,J1772,US,public
DC CORRIDOR SEATTLE MINI,11536 Lake City Way NE,Seattle,WA,98125,E,47.713224,-122.298415,104285,,CHADEMO J1772COMBO,US,public
DC CORRIDOR PAC SCI L2,200 2nd Ave N,Seattle,WA,98109,E,47.619056,-122.352371,104286,,J1772,US,public
UWMC SURGERY STATION 2,1959 NE Pacific St,Seattle,WA,98195,E,47.649948,-122.30746,104371,,J1772,US,public
BMGF EV STATION 02,500 5th Ave N,Seattle,WA,98109,E,47.624211,-122.346218,104381,,J1772,US,public
Pacific Raceways,31001 144th Ave SE,Kent,WA,98042,E,47.320954,-122.13822,104408,2017-04-01,TESLA,US,public
Fred Meyer - Tesla Supercharger,6100 East Lake Sammamish Parkway SE,Issaquah,WA,98029,E,47.5481,-122.04,104446,2018-10-01,TESLA,US,public
Bedrooms & More,324 NE 45th St,Seattle,WA,98105,E,47.661582,-122.32426,104475,2018-10-01,J1772,US,public
ISD411 ADMIN CENTER 1,5150 220th Ave SE,Issaquah,WA,98029,E,47.55493,-122.047455,104574,,J1772,US,public
Guy Waring Guest House,100 Riverside Ave,Winthrop,WA,98862,E,48.479357,-120.186033,104823,2018-01-01,J1772,US,public
Grand Mound Liquor Store,19947 Old Highway 99 SW,Rochester,WA,98579,E,46.798453,-123.0123,104981,2017-01-01,J1772,US,public
KING COUNTY DOT FACTORIA TRANSF,13800 SE 32nd St,Bellevue,WA,98005,E,47.582336,-122.158644,105066,,J1772,US,public
ALJOYA 1 EV CHARGER,2430 76th Ave SE,Mercer Island,WA,98040,E,47.588122,-122.237206,105118,,J1772,US,public
Colville City Hall,158 E 1st Ave,Colville,WA,99114,E,48.543915,-117.904797,105123,,J1772,US,public
Somerset Gardens Apartments,14700 NE 29th Pl,Bellevue,WA,98007,E,47.636824,-122.144188,105138,,J1772,US,public
INSIGNIA 953 215 216,583 Battery St,Seattle,WA,98121,E,47.616992,-122.343984,105150,,J1772,US,public
City of Renton - City Hall,1055 S Grady Way,Renton,WA,98057,E,47.474537,-122.204976,105263,2017-01-12,J1772,US,private
Bud Clary Chevrolet,1030 Commerce Ave,Longview,WA,98632,E,46.132245,-122.935179,105359,2018-12-01,J1772COMBO,US,private
Harvest Chevrolet,1600 E Yakima Ave,Yakima,WA,98901,E,46.604239,-120.481583,105361,2018-12-01,J1772 J1772COMBO,US,public
Cascade Chevrolet,148 Easy St,Wenatchee,WA,98801,E,47.467463,-120.336918,105362,2018-12-01,J1772 J1772COMBO,US,public
Angel of the Winds Casino - Tesla Destination,3438 Stoluckquamish Ln,Arlington,WA,98223,E,48.214506,-122.185718,116073,2017-03-01,TESLA,US,public
Alexander's Lodge & Restaurant - Tesla Destination,37515 SR 706 E,Ashford,WA,98304,E,46.751481,-121.93684,116074,2016-04-01,TESLA,US,public
Courtyard by Marriott Seattle Bellevue/Downtown - Tesla Destination,11010 NE 8th St,Bellevue,WA,98004,E,47.617665,-122.193105,116075,2017-03-01,TESLA,US,public
Marriott Bellevue - Tesla Destination,200 110th Ave,Bellevue,WA,98004,E,47.61273,-122.192893,116076,2015-12-01,J1772 TESLA,US,public
Marriott AC Bellevue - Tesla Destination,208 106th Pl NE,Bellevue,WA,98004,E,47.612127,-122.198017,116077,2018-11-01,J1772 TESLA,US,public
Hilton Bellevue - Tesla Destination,300 112th Ave SE,Bellevue,WA,98004,E,47.607119,-122.190562,116078,2015-12-01,J1772 TESLA,US,public
Hotel Bellwether - Tesla Destination,1 Bellwether Way,Bellingham,WA,98225,E,48.754134,-122.497055,116079,2016-04-01,J1772 TESLA,US,public
Best Western Plus Heritage Inn - Tesla Destination,151 McLeod Rd,Bellingham,WA,98226,E,48.783141,-122.484001,116080,2014-03-21,TESLA,US,public
Oxford Suites Bellingham - Tesla Destination,4051  Meridian St,Bellingham,WA,98226,E,48.788433,-122.487733,116081,2016-04-01,J1772 TESLA,US,public
Hamilton Cellars - Tesla Destination,55410 N Sunset Rd,Benton City,WA,99320,E,46.293791,-119.451533,116082,2015-11-01,J1772 TESLA,US,public
Semiahmoo Resort & Spa - Tesla Destination,9565 Semiahmoo Pkwy,Blaine,WA,98230,E,48.990492,-122.774463,116083,2014-04-01,TESLA,US,public
Carson Ridge Luxury Cabins - Tesla Destination,1261 Wind River Rd,Carson,WA,98610,E,45.729351,-121.821302,116084,2016-06-01,J1772 TESLA,US,public
Hotel Cathlamet - Tesla Destination,69 Main St,Cathlamet,WA,98612,E,46.20249,-123.3842,116085,2018-10-01,TESLA,US,public
Fielding Hills Winery - Tesla Destination,565 S Lakeshore Dr,Chelan,WA,98816,E,47.842235,-120.098116,116086,2018-11-01,TESLA,US,public
Suncadia Resort - Tesla Destination,3600 Suncadia Trl,Cle Elum,WA,98922,E,47.208469,-121.019582,116087,2017-09-01,TESLA,US,public
The Four Points by Sheraton Seattle Airport South - Tesla Destination,22406 Pacific Highway S,Des Moines,WA,98198,E,47.400631,-122.296989,116088,2016-01-01,J1772 TESLA,US,public
Best Western Plus Evergreen Inn & Suites - Tesla Destination,32124 25th Ave S,Federal Way,WA,98003,E,47.313655,-122.300511,116089,2015-11-01,TESLA,US,public
Quillayute River Resort - Tesla Destination,473 Mora Rd,Forks,WA,98331,E,47.915109,-124.544883,116090,2017-03-01,TESLA,US,public
Island Athletic Club - Tesla Destination,5511 S Freeland Ave,Freeland,WA,98249,E,48.010776,-122.533294,116091,2016-12-15,TESLA,US,public
Ocean5 - Tesla Destination,5268 Point Fosdick Dr NW,Gig Harbor,WA,98335,E,47.306053,-122.581125,116092,2018-11-01,J1772 TESLA,US,public
Best Western Wesley Inn - Tesla Destination,6575 Kimball Dr,Gig Harbor,WA,98335,E,47.318297,-122.585569,116093,2015-10-01,TESLA,US,public
Holiday Inn Seattle-Issaquah - Tesla Destination,1801 12th Ave NW,Issaquah,WA,98027,E,47.55146,-122.057884,116094,2018-11-01,J1772 TESLA,US,public
Badger Mountain Vineyard & Powers Winery - Tesla Destination,1106 N Jurupa St,Kennewick,WA,99338,E,46.212821,-119.287621,116095,2017-09-01,J1772 TESLA,US,public
Hampton Inn Kennewick at Southridge - Tesla Destination,3715 Plaza Wy,Kennewick,WA,99338,E,46.177254,-119.189388,116096,2016-02-01,J1772 TESLA,US,public
Saratoga Inn - Tesla Destination,201 Cascade Ave,Langley,WA,98260,E,48.039217,-122.406285,116097,2016-02-01,J1772 TESLA,US,public
The Inn at Langley - Tesla Destination,400 1st St.,Langley,WA,98260,E,48.041286,-122.41057,116098,2016-11-01,J1772 TESLA,US,public
Mountain Springs Lodge - Tesla Destination,19115 Chiwawa Loop Rd,Leavenworth,WA,98826,E,47.767847,-120.647931,116099,2015-09-16,TESLA,US,public
Sleeping Lady Mountain Resort - Tesla Destination,7375 Icicle Rd,Leavenworth,WA,98826,E,47.552479,-120.683708,116100,2018-11-01,J1772 TESLA,US,public
Alta Cellars - Tesla Destination,135 Wapato Wy,Manson,WA,98831,E,47.886161,-120.162695,116101,2018-11-01,TESLA,US,public
Hard Row to Hoe Vineyards - Tesla Destination,300 Ivan Morse Rd,Manson,WA,98831,E,47.895355,-120.131355,116102,2018-11-01,TESLA,US,public
Moonstone Beach Motel - Tesla Destination,4849 Pacific Ave,Moclips,WA,98562,E,47.24085,-124.217009,116103,2017-09-01,TESLA,US,public
Fairfield Inn & Suites by Marriott Moses Lake - Tesla Destination,2380 S Maiers Rd,Moses Lake,WA,98837,E,47.103231,-119.251047,116104,2017-05-05,TESLA,US,public
Adytum Sanctuary - Tesla Destination,186 Skyview Dr,Mossyrock,WA,98564,E,46.544781,-122.510619,116105,2017-09-01,J1772 TESLA,US,public
Hobuck Beach  Resort - Tesla Destination,2726 Makah Passage,Neah Bay,WA,98357,E,48.34003708,-124.6635398,116106,2015-10-01,TESLA,US,public
Hobuck Beach Resort  RV Camping - Tesla Destination,3346 Makah Passage,Neah Bay,WA,98357,E,48.33322634,-124.6597789,116107,2015-11-01,TESLA,US,public
Swantown Inn & Spa - Tesla Destination,1431 11th Ave SE,Olympia,WA,98501,E,47.039005,-122.882307,116108,2016-02-01,J1772 TESLA,US,public
Hotel RL by Red Lion - Tesla Destination,2300 Evergreen Park Dr SW,Olympia,WA,98502,E,47.027314,-122.913355,116109,2016-08-15,J1772 TESLA,US,public
Veranda Beach Resort - Tesla Destination,299 Eastlake Rd,Oroville,WA,98844,E,48.98807,-119.42111,116110,2017-09-01,J1772 TESLA,US,public
Red Lion Hotel Pasco - Tesla Destination,2525 North 20th Ave,Pasco,WA,99301,E,46.250777,-119.116704,116111,2016-03-01,J1772 TESLA,US,public
Camaraderie Cellars - Tesla Destination,334 Benson Rd,Port Angeles,WA,98363,E,48.100859,-123.477344,116112,2017-09-01,J1772 TESLA,US,public
Colette's Bed and Breakfast - Tesla Destination,339 Finn Hall Rd,Port Angeles,WA,98362,E,48.115112,-123.26831,116113,2015-10-01,TESLA,US,public
"George Washington Inn, a Select Registry Property - Tesla Destination",939 Finn Hall Rd,Port Angeles,WA,98362,E,48.114711,-123.255463,116114,2015-10-01,J1772 TESLA,US,public
Holiday Inn Express Pullman - Tesla Destination,1190 SE Bishop Blvd,Pullman,WA,99163,E,46.716046,-117.165781,116115,2016-03-01,J1772 TESLA,US,public
Hampton Inn and Suites Puyallup - Tesla Destination,1515 S Meridian,Puyallup,WA,98371,E,47.177152,-122.293198,116116,2017-09-01,TESLA,US,public
Cave B Estate Winery & Resort - Tesla Destination,344 Silica Rd NW,Quincy,WA,98848,E,47.097647,-119.984624,116117,2015-11-01,J1772 TESLA,US,public
Seattle Marriott Redmond - Tesla Destination,7401 164th Ave NE,Redmond,WA,98052,E,47.671181,-122.121739,116118,2016-01-01,J1772 TESLA,US,public
Homewood Suites Richland - Tesla Destination,1060 George Washington Wy,Richland,WA,99352,E,46.281441,-119.273011,116119,2017-09-01,J1772 TESLA,US,public
Hampton Inn Richland/Tri-Cities - Tesla Destination,486 Bradley Blvd,Richland,WA,99352,E,46.271502,-119.270271,116120,2017-09-01,J1772 TESLA,US,public
Thompson Seattle - Tesla Destination,100 Stewart St,Seattle,WA,98101,E,47.610439,-122.341484,116121,2017-03-01,J1772 TESLA,US,public
Hotel 1000 - Tesla Destination,1000 1st Ave,Seattle,WA,98104,E,47.605051,-122.336105,116122,2016-05-01,J1772 TESLA,US,public
Motif Seattle - Tesla Destination,1415  5th Ave,Seattle,WA,98101,E,47.61002,-122.33542,116123,2015-10-01,J1772 TESLA,US,public
Hotel Theodore - Tesla Destination,1531  7th Ave,Seattle,WA,98101,E,47.612293,-122.334423,116124,2018-11-01,TESLA,US,public
Cedarbrook Lodge - Tesla Destination,18525 36th Ave S,Seattle,WA,98188,E,47.436906,-122.288434,116125,2015-12-01,J1772 TESLA,US,public
Seattle Marriott Waterfront - Tesla Destination,2100 Alaskan Way,Seattle,WA,98121,E,47.610669,-122.346572,116126,2015-10-01,J1772 TESLA,US,public
Bedrooms & More - Tesla Destination,324 NE 45th St,Seattle,WA,98105,E,47.661582,-122.32426,116128,2018-10-01,TESLA,US,public
400 Fairview - Tesla Destination,400 Fairview Ave N,Seattle,WA,98109,E,47.622547,-122.333912,116129,2016-01-01,J1772 TESLA,US,public
The Fairmont Olympic Hotel - Tesla Destination,411 University St,Seattle,WA,98101,E,47.608017,-122.334861,116130,2015-10-01,J1772 TESLA,US,public
Residence Inn by Marriott Seattle University Distric - Tesla Destination,4501  12th Ave NE,Seattle,WA,98105,E,47.661707,-122.315765,116131,2017-09-01,TESLA,US,public
Hampton Inn and Suites Seattle-Downtown - Tesla Destination,500 5th Ave N,Seattle,WA,98109,E,47.623506,-122.345644,116132,2017-09-01,TESLA,US,public
Four Points by Sheraton Downtown Seattle Center - Tesla Destination,601 Roy St,Seattle,WA,98109,E,47.625122,-122.344482,116133,2017-09-01,TESLA,US,public
Hotel Max - Tesla Destination,620 Stewart St,Seattle,WA,98101,E,47.614216,-122.336606,116134,2015-12-01,TESLA,US,public
Shafer Baillie Mansion Bed & Breakfast - Tesla Destination,907 14th Ave E,Seattle,WA,98112,E,47.627028,-122.314916,116135,2015-11-01,TESLA,US,public
Four Seasons Hotel Seattle - Tesla Destination,99 Union St,Seattle,WA,98101,E,47.607379,-122.339155,116136,2015-12-01,TESLA,US,public
Shelburne Inn Restaurant & Pub - Tesla Destination,4415 Pacific Way,Seaview,WA,98644,E,46.334798,-124.055076,116137,2015-12-11,J1772 TESLA,US,public
Lost Mountain Lodge - Tesla Destination,303 Sunny View Dr,Sequim,WA,98382,E,48.062316,-123.168212,116138,2017-09-01,TESLA,US,public
GreenHouse Inn by the Bay - Tesla Destination,630 Marine Dr,Sequim,WA,98382,E,48.148748,-123.153244,116139,2017-03-01,TESLA,US,public
Snoqualmie Casino - Tesla Destination,37500 SE N Bend Wy,Snoqualmie,WA,98065,E,47.516794,-121.840364,116141,2018-11-01,TESLA,US,public
The Davenport Hotel - Tesla Destination,10 S Post St,Spokane,WA,99201,E,47.656878,-117.424256,116142,2015-11-01,TESLA,US,public
The Davenport Tower - Tesla Destination,111 Post St,Spokane,WA,99201,E,47.656255,-117.422986,116143,2015-12-01,TESLA,US,public
Oxford Suites Spokane - Tesla Destination,115 W North River Dr,Spokane,WA,99201,E,47.663441,-117.412777,116144,2015-11-01,J1772 TESLA,US,public
Hampton Inn Airport Spokane - Tesla Destination,2010 S Assembly Rd,Spokane,WA,99224,E,47.637222,-117.477034,116145,2016-01-01,J1772 TESLA,US,public
DoubleTree by Hilton Spokane City Center - Tesla Destination,322 N Spokane Falls Ct,Spokane,WA,99201,E,47.660571,-117.414248,116146,2016-03-01,J1772 TESLA,US,public
The Davenport Grand Hotel - Tesla Destination,333 W Spokane Falls Blvd,Spokane,WA,99201,E,47.659765,-117.417374,116147,2015-10-01,TESLA,US,public
The Hotel Lusso - Tesla Destination,808 W Sprague Ave,Spokane,WA,99201,E,47.65736,-117.424,116148,2015-11-01,TESLA,US,public
Hilton Garden Inn Spokane Airport - Tesla Destination,9015 W Hwy 2,Spokane,WA,99224,E,47.642939,-117.537822,116149,2017-09-01,J1772 TESLA,US,public
Oxford Suites Spokane Valley - Tesla Destination,15015  E Indiana Ave,Spokane Valley,WA,99216,E,47.675378,-117.206738,116150,2017-03-01,J1772 TESLA,US,public
Skamania Lodge - Tesla Destination,1131  Skamania Lodge Way,Stevenson,WA,98648,E,45.685326,-121.905864,116151,2016-04-01,J1772 TESLA,US,public
Hotel Murano - Tesla Destination,1320 Broadway Plaza,Tacoma,WA,98444,E,47.2499,-122.43955,116152,2015-10-01,TESLA,US,public
Best Western Plus Tacoma Dome Hotel - Tesla Destination,2611 East E St,Tacoma,WA,98421,E,47.238612,-122.426701,116153,2015-12-01,TESLA,US,public
Alderbrook Resort & Spa - Tesla Destination,10 E Alderbrook Dr,Union,WA,98592,E,47.347192,-123.067683,116154,2015-12-01,J1772 TESLA,US,public
Heathman Lodge - Tesla Destination,7801 NE Greenwood Dr,Vancouver,WA,98662,E,45.65327,-122.591984,116155,2018-10-01,J1772 TESLA,US,public
Dunham Wine Cellars - Tesla Destination,150 E Boeing,Walla Walla,WA,99362,E,46.089319,-118.278677,116156,2016-02-01,TESLA,US,public
Pepper Bridge Winery - Tesla Destination,1704  J.B. George Rd,Walla Walla,WA,99362,E,46.012334,-118.369889,116157,2015-12-01,J1772 TESLA,US,public
Inn at Abeja - Tesla Destination,2014 Mill Creek Rd,Walla Walla,WA,99362,E,46.087373,-118.226734,116158,2015-11-01,TESLA,US,public
Amavi Cellars - Tesla Destination,3796 Peppers Bridge Rd,Walla Walla,WA,99362,E,46.016072,-118.385963,116159,2015-10-01,J1772 TESLA,US,public
Marcus Whitman Hotel - Tesla Destination,6 W Rose St,Walla Walla,WA,99362,E,46.067801,-118.341422,116160,2016-12-15,J1772 TESLA,US,public
Corvus Cellars - Tesla Destination,760 C St,Walla Walla,WA,99362,E,46.085975,-118.278024,116161,2015-11-01,TESLA,US,public
Warm Springs Inn & Winery - Tesla Destination,1611 Love Ln,Wenatchee,WA,98801,E,47.47487,-120.376005,116162,2015-12-01,TESLA,US,public
Cranberry Road Winery - Tesla Destination,2858 S Forrest St,Westport,WA,98595,E,46.860034,-124.107732,116163,2017-03-01,TESLA,US,public
Sun Mountain Lodge - Tesla Destination,604 Patterson Lake Rd,Winthrop,WA,98862,E,48.476863,-120.255895,116164,2016-03-01,J1772 TESLA,US,public
Willows Lodge - Tesla Destination,14850 NE 145th St,Woodinville,WA,98072,E,47.732964,-122.141228,116165,2018-11-01,TESLA,US,public
Holiday Inn Downtown Yakima - Tesla Destination,802 E Yakima Ave,Yakima,WA,98901,E,46.604581,-120.494951,116167,2018-11-01,TESLA,US,public
Legacy Villa,21900 E Country,Vista Dr,WA,99019,E,47.667043,-117.110447,116741,,J1772,US,public
Spokane Indians,602 N. Havana,Spokane Valley,WA,99202,E,47.662013,-117.346294,116743,,J1772,US,public
Cle Elum Business Park - Tesla Supercharger,811 WA-970 Cle,Cle Elum,WA,98922,E,47.1893,-120.9027,116820,2018-12-01,TESLA,US,public
Vancouver Mall - North,8700 NE Vancouver Mall Dr,Vancouver,WA,98662,E,45.658846,-122.583487,117128,2019-01-01,J1772,US,public
Issaquah Medical Building,1301 4th Ave NW,Issaquah,WA,98027,E,47.544345,-122.041774,117285,2018-09-13,J1772,US,private
Bellevue City Hall,450 110th Ave NE,Bellevue,WA,98004,E,47.614293,-122.192294,117286,2018-12-03,J1772,US,private
Midtown 21,1007 Stewart St,Seattle,WA,98101,E,47.616299,-122.333034,117287,2018-12-26,J1772,US,public
SRO SP2,3545 Factoria Blvd SE,Bellevue,WA,98006,E,47.578255,-122.17137,117302,,J1772,US,public
SRO SP1,3535 Factoria Blvd SE,Bellevue,WA,98006,E,47.578784,-122.171273,117303,,J1772,US,public
SRO ICC #1,2411 76th Ave SE,Mercer Island,WA,98040,E,47.588561,-122.238129,117304,,J1772,US,public
UNIVERSITYPLACE UP CH #3,3555 Market Pl W,University Place,WA,98466,E,47.226352,-122.536126,117456,,J1772,US,public
UNIVERSITYPLACE UP CH #2,3610 Drexler Dr,University Place,WA,98466,E,47.226253,-122.536134,117457,,J1772,US,public
CLOVER PARK TEC BUILDING 24 #1,4500 Steilacoom Blvd SW,Lakewood,WA,98499,E,47.174795,-122.499877,117543,,J1772,US,public
TACOMA PARKS EASTSIDE #2,1721 E 56th St,Tacoma,WA,98404,E,47.207023,-122.405253,119017,,J1772,US,public
JLR BELLEVUE DC FAST 01,13817 NE 20th St,Bellevue,WA,98005,E,47.627443,-122.155925,119039,,J1772COMBO,US,public
ALLEN INSTITUTE SOUTH,615 Westlake Ave N,Seattle,WA,98109,E,47.625077,-122.339032,120879,,J1772,US,public
European Autohaus,6510 W THORPE RD,Spokane,WA,99224,E,47.614336,-117.503088,120898,,J1772,US,public
RED 160,16015 Cleveland St,Redmond,WA,98052,E,47.674374,-122.127167,120927,,J1772,US,public
TPU TPU HQ #8,3408 S Union Ave,Tacoma,WA,98409,E,47.228589,-122.484377,120962,,J1772,US,public
PACIFIC LUTH U STATION 3,508 122nd St S,Tacoma,WA,98447,E,47.145098,-122.438741,121095,,J1772,US,public
PACIFIC LUTH U STATION 2,512 122nd St S,Tacoma,WA,98447,E,47.145084,-122.438862,121096,,J1772,US,public
SIA ECO 2,W McFarlane Rd,Spokane,WA,99224,E,47.630024,-117.538342,121126,,J1772,US,public
TPU TPU OLD TOWN #2,2222 N 30th St,Tacoma,WA,98403,E,47.274538,-122.466743,121216,,J1772,US,public
INTEGRAND TROVE,218 N Samish Way,Bellingham,WA,98225,E,48.738079,-122.469392,121382,,J1772,US,public
521606-CIVICA OFFICE COMMONS,225-108TH AVE NE,BELLEVUE,WA,98004,E,47.6123,-122.1966,121397,,J1772,US,public
T-MOBILE PARK GRIFFEY,1518 1st Ave S,Seattle,WA,98134,E,47.589593,-122.332945,121549,,J1772,US,public
King County Housing Authority - Main Office,600 Andover Park West,Tukwila,WA,98188,E,47.44897,-122.25331,121601,,J1772,US,public
"Walmart 2539 - Spokane Valley, WA",15727 E Broadway Ave,Spokane Valley,WA,99037,E,47.665596,-117.190123,121703,,CHADEMO J1772COMBO,US,public
North Bend Premium Outlets,461 S. Fork Avenue,North Bend,WA,98045,E,47.491288,-121.793559,121704,,CHADEMO J1772COMBO,US,public
Walmart 2947 Vancouver,9000 NE HIGHWAY 99,Vancouver,WA,98665,E,45.687387,-122.660913,121709,,CHADEMO J1772COMBO,US,public
Naval Facilities Engineering Command - Naval Air Station Whidbey Island - B103,1115 W Lexington St,Oak Harbor,WA,98278,E,48.343208,-122.674995,122106,2019-02-01,J1772,US,private
Naval Facilities Engineering Command - Bangor Trident Base - Building 1100,1035 Trident Blvd,Silverdale,WA,98315,E,47.658,-122.712,122107,2019-02-01,NEMA520,US,private
Naval Facilities Engineering Command - Bangor Trident Base - Building 1100,1036 Trident Blvd,Silverdale,WA,98315,E,47.658,-122.712,122108,2019-02-01,J1772,US,private
Naval Facilities Engineering Command - Bangor Trident Base - Building 1101,1037 Trident Blvd,Silverdale,WA,98315,E,47.658,-122.712,122109,2019-02-01,NEMA520,US,private
Naval Facilities Engineering Command - Bangor Trident Base - Building 1101,1038 Trident Blvd,Silverdale,WA,98315,E,47.658,-122.712,122110,2019-02-01,J1772,US,private
Naval Facilities Engineering Command - Bangor Trident Base - Building 7000,1039 Trident Blvd,Silverdale,WA,98315,E,47.658,-122.712,122111,2019-02-01,NEMA520,US,private
Naval Facilities Engineering Command - Bangor Trident Base - Building T51 2,1040 Trident Blvd,Silverdale,WA,98315,E,47.658,-122.712,122112,2019-02-01,NEMA520,US,private
Naval Facilities Engineering Command - Bangor Trident Base - Building T51 2,1041 Trident Blvd,Silverdale,WA,98315,E,47.658,-122.712,122113,2019-02-01,J1772,US,private
Naval Facilities Engineering Command - Bangor Trident Base - T-75,1042 Trident Blvd,Silverdale,WA,98315,E,47.658,-122.712,122114,2019-02-01,NEMA520,US,private
Naval Facilities Engineering Command - Bangor Trident Base - T-75,1043 Trident Blvd,Silverdale,WA,98315,E,47.658,-122.712,122115,2019-02-01,J1772,US,private
Naval Facilities Engineering Command - Naval Base Kitsap - Building 427,120 S Dewey St,Silverdale,WA,98315,E,47.563229,-122.646326,122116,2019-02-01,J1772 NEMA520,US,private
Naval Facilities Engineering Command - Naval Base Kitsap - Building 495,122 S Dewey St,Silverdale,WA,98315,E,47.563313,-122.646465,122118,2019-02-01,J1772 NEMA520,US,private
Naval Facilities Engineering Command - Naval Base Kitsap - Building 78,124 S Dewey St,Silverdale,WA,98315,E,47.563266,-122.646362,122120,2019-02-01,J1772 NEMA520,US,private
Naval Facilities Engineering Command - Naval Base Kitsap - Building 850A,126 S Dewey St,Silverdale,WA,98315,E,47.56327,-122.646238,122122,2019-02-01,J1772 NEMA520,US,private
Naval Facilities Engineering Command - Port Hadlock-Irondale - 151,Chimacum Rd,Port Hadlock,WA,98339,E,48.0553,-122.6957,122124,2019-02-01,J1772 NEMA520,US,private
"Naval Facilities Engineering Command - Naval Station Everett - B2134-1,2,3,4,5,6",2000 W Marine View Dr,Everett,WA,98207,E,47.993164,-122.221138,122125,2019-02-01,J1772,US,private
"Naval Facilities Engineering Command - Naval Station Everett  B2003-1,2",2000 W Marine View Dr,Everett,WA,98207,E,47.992104,-122.214104,122126,2019-02-01,J1772,US,private
Naval Facilities Engineering Command - Naval Sea Systems Command,610 Dowell Rd,Keyport,WA,98345,E,21.3563,-157.9382,122127,2019-02-01,NEMA520,US,private
Naval Facilities Engineering Command - Naval Sea Systems Command,611 Dowell Rd,Keyport,WA,98345,E,47.70224,-122.624811,122128,2019-02-01,NEMA520,US,private
3rd Street Parking,17 N 3rd St,Yakima,WA,98901,E,46.603762,-120.503347,122190,2016-05-15,J1772,US,public
SKAGITYMCA ONE,1901 Hoag Rd,Mount Vernon,WA,98273,E,48.443205,-122.316279,122217,,J1772,US,public
Fred Meyer - Tesla Supercharger,18805 US-2,Monroe,WA,98272,E,47.8626,-121.9766,122266,2019-03-01,TESLA,US,public
Blue Mountain Station - Tesla Destination,700 Artisan Wy,Dayton,WA,99328,E,46.31017,-117.99763,122580,2019-03-01,J1772 TESLA,US,public
Washington Athletic Club Garage - Tesla Destination,1325 6th Ave,Seattle,WA,98101,E,47.609925,-122.333764,122581,2019-03-01,J1772 TESLA,US,public
Hotel Interurban - Tesla Destination,223 Andover Park E,Tukwila,WA,98188,E,47.457313,-122.251128,122582,2019-03-01,TESLA,US,public
Patterson Cellars - Tesla Destination,19501 144th Ave NE Suite D500,Woodinville,WA,98072,E,47.769835,-122.148018,122583,2019-03-01,TESLA,US,public
LINCOLN SQUARE LS NORTH DUAL 4,110 Bellevue Way NE,Bellevue,WA,98004,E,47.616294,-122.201029,122765,,J1772,US,public
188 BLAINE ATRIUM4,1818 Fairview Ave East,Seattle,WA,98102,E,47.635213,-122.325845,122773,,J1772,US,public
188 BLAINE ATRIUM3,1823 Eastlake Ave E,Seattle,WA,98102,E,47.635119,-122.325866,122774,,J1772,US,public
BELLEVUE PLACE BELL PLACE #2,575 Bellevue Way NE,Bellevue,WA,98004,E,47.618421,-122.20129,122781,,J1772,US,public
DAY 1 SEA29 P3 005,207 Boren Ave,Seattle,WA,98109,E,47.62036,-122.336252,122817,,J1772,US,public
STA West Plains,10810 W. Westbow Road,Spokane,WA,99201,E,47.590129,-117.565574,122833,,CHADEMO J1772 J1772COMBO,US,public
STCU,1620 N Signal Dr,Liberty Lake,WA,99019,E,47.672698,-117.100062,122836,,J1772,US,public
BELLEVUE SQUARE BELL SQ WEST #4,600 100th Ave NE,Bellevue,WA,98004,E,47.615943,-122.205532,122957,,J1772,US,public
BELLEVUE SQUARE BELL SQ WEST #3,2086 Bellevue Square,Bellevue,WA,98004,E,47.615991,-122.205533,122993,,J1772,US,public
BELLEVUE SQUARE BELL SQ WEST #2,2088 Bellevue Square,Bellevue,WA,98004,E,47.616037,-122.205528,122994,,J1772,US,public
"Walmart 2596 - Mount Vernon, WA",2301 Freeway Dr.,Mount Vernon,WA,98273,E,48.44174,-122.344757,123004,,CHADEMO J1772COMBO,US,public
Lake Quinault Lodge,345 S Shore Rd,Quinault,WA,98575,E,47.465555,-123.850735,123007,2018-05-01,J1772,US,public
"Target T2290 - Renton, WA",1215 N Landing Way,Renton,WA,98057,E,47.497292,-122.199295,123050,,CHADEMO J1772 J1772COMBO,US,public
Parklands North Creek - Building Q,19910 North Creek Pkwy,Bothell,WA,98011,E,47.77301,-122.18555,123157,2019-04-01,J1772,US,public
Haven Design Workshop,5828 2nd Ave,Ferndale,WA,98248,E,48.8529235,-122.5895254,123158,2019-04-01,J1772,US,private
Verizon - Bellevue,3245 158th Ave SE,Bellevue,WA,98008,E,47.579872,-122.135431,123331,2019-05-01,J1772,US,private
"Target T0338 - Lynnwood, WA",18305 Alderwood Mall Pkwy,Lynnwood,WA,98037,E,47.831991,-122.267332,123446,,CHADEMO J1772COMBO,US,public
CM80 STATION 1,Quartermaster Rd,Lakewood,WA,98498,E,47.116968,-122.568543,123473,,J1772,US,public
"Walmart 3531 - Lacey, WA",1401 Galaxy Dr. NE,Lacey,WA,98516,E,47.059659,-122.77201,123479,,CHADEMO J1772COMBO,US,public
The Hanger - Kenmore,6704 NE 181st Street,Kenmore,WA,98028,E,47.759665,-122.250898,123544,,J1772,US,public
VALLEY MED CTR NE GARAGE #4,3917 Talbot Rd S,Renton,WA,98055,E,47.444636,-122.21277,123545,,J1772,US,public
VALLEY MED CTR NE GARAGE #2,3921 Talbot Rd S,Renton,WA,98055,E,47.444881,-122.212781,123546,,J1772,US,public
DAY 1 SEA23 P1 001,535 Terry Ave N,Seattle,WA,98109,E,47.623967,-122.337695,123567,,J1772,US,public
HOFM SHOP02,15714 Smokey Point Blvd,Marysville,WA,98271,E,48.13992,-122.18453,123671,,J1772,US,public
"Walmart 5073 - Covington, WA",17432 SE 270th PL,Covington,WA,98042,E,47.360982,-122.110209,124057,,CHADEMO J1772 J1772COMBO,US,public
Seattle Premium Outlets,10600 Quil Ceda Blvd.,Tulalip,WA,98271,E,48.095461,-122.186896,124683,,CHADEMO J1772COMBO,US,public
Three Rivers Mall,351 Three Rivers Dr.,Kelso,WA,98626,E,46.139875,-122.901263,124684,,CHADEMO J1772COMBO,US,public
Snohomish County - Campus Garage,3000 Rockefeller Ave,Everett,WA,98201,E,47.97725,-122.206369,131991,2019-03-14,J1772,US,private
"Walmart 4137 - Tacoma, WA",1965 S Union Ave.,Tacoma,WA,98405,E,47.239472,-122.480252,135872,,CHADEMO J1772 J1772COMBO,US,public
"Walmart 2269 - Yakima, WA",1600 East Chestnut Ave.,Yakima,WA,98901,E,46.60252,-120.47924,136697,,CHADEMO J1772COMBO,US,public
Vancouver Mall - Southeast,8700 NE Vancouver Mall Dr,Vancouver,WA,98662,E,45.657694,-122.581884,137161,2019-07-19,J1772,US,public
Vancouver Mall - Ulta,8700 NE Vancouver Mall Dr,Vancouver,WA,98662,E,45.657374,-122.584789,137162,2019-07-19,J1772,US,public
Whole Foods Bellingham,1030 Lakeway Dr,Bellingham,WA,98229,E,48.74393,-122.461854,138537,,CHADEMO J1772COMBO,US,public
Novo Apartments,18025 SE 272nd St,Covington,WA,98042,E,47.356087,-122.101311,142057,,J1772,US,private
LONE WOLF H-D DCFAST HOG,19011 E Cataldo Ave,Spokane Valley,WA,99016,E,47.667469,-117.149304,143152,,J1772COMBO,US,public
CHINA CITY N CHINA CITY #2,1804 Scott Rd,Freeland,WA,98249,E,48.009823,-122.51769,143206,,J1772,US,public
HARLEY1 DCFAST HOG,5711 188th St SW,Lynnwood,WA,98037,E,47.828644,-122.310875,143212,,J1772COMBO,US,public
DESTINATION DCFAST HOG,2302 Pacific Hwy E,Fife,WA,98424,E,47.24293,-122.39677,143215,,J1772COMBO,US,public
CHINA CITY N CHINA CITY #1,33185 WA-20,Oak Harbor,WA,98277,E,48.309216,-122.641266,143268,,J1772,US,public
MEYDENBAUER PARKING LOT,9899 Lake Washington Blvd NE,Bellevue,WA,98004,E,47.611637,-122.210596,143281,,J1772,US,public
EASTSIDE HD DCFAST HOG,2301 140th Ave NE,Bellevue,WA,98005,E,47.630585,-122.15664,143313,,J1772COMBO,US,public
PERMANENTE KP PUYALLUP #4,1009 39th Ave SE,Puyallup,WA,98374,E,47.155357,-122.28065,143334,,J1772,US,public
PERMANENTE KPP #3,1007 39th Ave SE,Puyallup,WA,98374,E,47.155403,-122.28066,143335,,J1772,US,public
DAY 1 REINVENT5,2121 8th Ave,Seattle,WA,98121,E,47.616654,-122.338888,143369,,J1772,US,public
CBRE1 URBAN COM #1,321 Park Pl,Kirkland,WA,98033,E,47.677868,-122.19936,143397,,J1772,US,public
LAKEVIEW L&P 1 LLP 1,11509 Bridgeport Way SW,Lakewood,WA,98499,E,47.153199,-122.504023,143416,,J1772,US,public
BWP VANCOUVER FISHERS LANDING,1500 SE 167th Ave,Vancouver,WA,98683,E,45.609302,-122.500484,143454,,J1772,US,public
CENTER PLAZA FEDERAL WAY 3,2016 S 320th St,Federal Way,WA,98003,E,47.316668,-122.306683,143504,,J1772,US,public
VIDA APARTMENTS VIDA 1,1205 NE 66th ST,Seattle,WA,98115,E,47.678055,-122.314119,143575,,J1772,US,public
Orcas Village Park and Ride,155 Orcas Hill Rd,Orcas,WA,98280,E,48.599217,-122.945746,143782,2017-10-31,CHADEMO J1772,US,public
Chehalis Commerce District,1701 NW Louisiana Ave,Chehalis,WA,98532,E,46.6798738,-122.9771577,143835,,CHADEMO J1772 J1772COMBO,US,public
Kohl’s - Vancouver SE,17001 SE Mill Plain Blvd,Vancouver,WA,98684,E,45.616146,-122.497669,143863,2019-08-19,J1772,US,public
COLLEGE HALL MUSIC HALL,302 E Boone Ave,Spokane,WA,99202,E,47.668051,-117.4063,143885,,J1772,US,public
Gonzaga Fast,721 N Cincinnati,SPOKANE,WA,99201,E,47.663105,-117.40049,143939,,CHADEMO J1772COMBO,US,public
Dupont Center - Ace Hardware,1585 McNeil St,DuPont,WA,98327,E,47.092582,-122.644253,143969,,CHADEMO J1772 J1772COMBO,US,public
"Walmart 3053 - Everett, WA",1605 SE Everett Mall Way,Everett,WA,98208,E,47.913486,-122.213314,143970,,CHADEMO J1772COMBO,US,public
Cow Creek Mercantile,1611 Smittys Blvd.,Ritzville,WA,99169,E,47.119482,-118.362709,143971,,CHADEMO J1772COMBO,US,public
HASCO STATION 01,12711 4th Ave W,Everett,WA,98204,E,47.883444,-122.237482,144011,,J1772,US,public
EDMONDSNISSAN CAMPBELL NORTH,"24325 Highway 99 Edmonds, WA. 98026",Edmonds,WA,98026,E,47.778256,-122.344832,144074,,CHADEMO J1772COMBO,US,public
"Walmart 5462 - Vancouver, WA",430 SE 192nd Ave.,Vancouver,WA,98683,E,45.617755,-122.478138,144090,,CHADEMO J1772 J1772COMBO,US,public
UDR ISLAND SQ APT 1,2858 78th Ave se,Mercer Island,WA,98040,E,47.585782,-122.233277,144104,,J1772,US,public
SeaTac Cell Phone Parking Lot,2623 S 170th St,Seattle,WA,98188,E,47.450258,-122.299448,144984,,CHADEMO J1772COMBO,US,public
Revision Marine,301 10th Street,Port Townsend,WA,98368,E,48.10697,-122.779991,145131,,J1772,US,public
DC CORRIDOR WOODLAND ZOO DC,750 N 50th St,Seattle,WA,98103,E,47.66547,-122.350292,145151,,CHADEMO J1772COMBO,US,public
Capital Mall - REI,625 Black Lake Blvd,Olympia,WA,98502,E,47.042021,-122.938312,145252,2019-09-01,J1772,US,public
Capital Mall - North Entrance,625 Black Lake Blvd,Olympia,WA,98502,E,47.04259,-122.936467,145253,2019-09-01,J1772,US,public
Capital Mall - Best Buy,625 Black Lake Blvd,Olympia,WA,98502,E,47.042849,-122.934578,145254,2019-09-01,J1772,US,public
Westfield Southcenter Mall,500 Southcenter Mall,Tukwila,WA,98188,E,47.459988,-122.259089,145255,2019-09-01,J1772,US,public
AMC Factoria 8,3505 Factoria Blvd SE,Bellevue,WA,98006,E,47.578664,-122.170463,145256,2019-09-01,J1772,US,public
Broadway Market,401 Broadway E,Seattle,WA,98102,E,47.622046,-122.321607,145257,2019-09-01,J1772,US,public
The Terminal at Ballard,907 NW Ballard Way,Seattle,WA,98107,E,47.662343,-122.370015,145258,2019-09-01,J1772,US,public
Safeway,7300 Roosevelt Way NE,Seattle,WA,98115,E,47.682585,-122.317187,145259,2019-09-01,J1772,US,public
AMC Loews Oak Tree 6,10006 Aurora Ave N,Seattle,WA,98133,E,47.701879,-122.343086,145260,2019-09-01,J1772,US,public
Sammamish Highlands,510 228th Ave NE,Sammamish,WA,98074,E,47.614102,-122.034147,145261,2019-09-01,J1772,US,public
Pine Lake Village,3016 Issaquah-Pine Lake Rd SE,Sammamish,WA,98075,E,47.583103,-122.033895,145262,2019-09-01,J1772,US,public
Grand Ridge Plaza Regal Theater,1451 Highlands Dr NE,Issaquah,WA,98029,E,47.543753,-122.017313,145263,2019-09-01,J1772,US,public
Kitsap Mall - Dick’s Sporting Goods,10315 Silverdale Way NW,Silverdale,WA,98383,E,47.656979,-122.692138,145264,2019-09-01,J1772,US,public
Kitsap Mall - Kohl’s,10315 Silverdale Way NW,Silverdale,WA,98383,E,47.658808,-122.688751,145265,2019-09-01,J1772,US,public
SCH CURE P1 #5,1920 Terry Ave,Seattle,WA,98101,E,47.617016,-122.33408,145390,,J1772,US,public
"Target T1331 - Lake Stevens, WA",9601 Market Place,Lake Stevens,WA,98258,E,47.998233,-122.100638,145684,,CHADEMO J1772 J1772COMBO,US,public
JET CITY HARLEY DC FAST HOG,3715 E Valley Rd,Renton,WA,98057,E,47.44638,-122.219665,146804,,J1772COMBO,US,public
Simon Northgate Mall,401 NE Northgate Way,Seattle,WA,98125,E,47.708457,-122.324887,146948,,CHADEMO J1772 J1772COMBO,US,public
Ridgewood Corporate Square Building G,"11900 NE 1st Street, Building G",Bellevue,WA,98007,E,47.611519,-122.182197,147033,,J1772,US,public
KENT YMCA KENT YMCA #2,10920 SE 248th St,Kent,WA,98030,E,47.380592,-122.19517,147069,,J1772,US,public
KENT YMCA KENT YMCA #3,10822 SE 248th St,Kent,WA,98030,E,47.38073,-122.19693,147070,,J1772,US,public
KENT YMCA KENT YMCA #1,10828 SE 248th St,Kent,WA,98030,E,47.380135,-122.196106,147072,,J1772,US,public
MARYSVILLE TYTA STATION 01,16120 Smokey Point Blvd,Marysville,WA,98271,E,48.142734,-122.183773,147075,,J1772,US,public
"Target T0627 - Tukwila, WA",301 Strander Blvd.,Tukwila,WA,98188,E,47.455711,-122.25738,147131,,CHADEMO J1772COMBO,US,public
COMMUNITY HOUSE COMMUNITY #2,1314 S L St,Tacoma,WA,98405,E,47.24889,-122.453156,147146,,J1772,US,public
"Target T0996 - Issaquah, WA",755 NW Gillman Blvd.,Issaquah,WA,98027,E,47.541874,-122.052032,147227,,CHADEMO J1772 J1772COMBO,US,public
UDR CHARGER 4,958 111th Ave NE,Bellevue,WA,98004,E,47.618696,-122.191787,147301,,J1772,US,public
KW RADIUS RADIUS 1,400 Boren Ave N,Seattle,WA,98109,E,47.622575,-122.335481,147397,,J1772,US,public
UDR ISLAND SQ APT 2,2758 78th Ave se,Mercer Island,WA,98040,E,47.585809,-122.233237,147432,,J1772,US,public
Ridgewood Corporate Square Building F,150 120th Ave NE,Bellevue,WA,98005,E,47.611815,-122.178134,147519,,J1772,US,public
Ridgewood Corporate Square Building D,220 120th Ave NE,Bellevue,WA,98007,E,47.611815,-122.178134,147534,,J1772,US,public
Ridgewood Corporate Square Building C,330 120th Ave NE,Bellevue,WA,98005,E,47.612834,-122.178704,147537,,J1772,US,private
EASTGATE OFFICE EASTGATE GARAGE,15325 SE 30th Pl,Bellevue,WA,98007,E,47.584564,-122.13685,147545,,J1772,US,public
Bella Tess Apartments,17016 E Indiana Pkwy,Spokane,WA,99216,E,47.670907,-117.176359,147574,2019-11-07,J1772,US,public
Wingate by Wyndham Spokane Airport,2726 S Flint Rd,Spokane,WA,99224,E,47.629653,-117.535663,147575,2019-11-07,J1772,US,public
"Walmart 5628 - Monroe, WA",19191 N Kelsey Street,Monroe,WA,98272,E,47.865164,-121.973176,147648,,CHADEMO J1772 J1772COMBO,US,public
CFC Cordata,315 Westerly Road,Bellingham,WA,98226,E,48.791487,-122.4923624,147665,,J1772,US,public
"Bellingham 1, LLP",4040 Northwest Avenue,Bellingham,WA,98226,E,48.7885917,-122.5060156,147666,,J1772,US,public
CFC Holly ST Lot,1220 North Forest Street,Bellingham,WA,98225,E,48.7472802,-122.4762196,147667,,J1772,US,public
Railroad Avenue South Lot,1100 Railroad Avenue,Bellingham,WA,98225,E,48.7470747,-122.4807487,147669,,J1772,US,public
Western Washington University,516 High Street (MS9114),Bellingham,WA,98225,E,48.7391984,-122.4851568,147670,,J1772,US,public
Sinkiuse Square,306 Ash Street,Moses Lake,WA,98837,E,47.1293765,-119.2791367,147671,,J1772,US,public
"Walgreens - Anacortes, WA #7131",909 17th Street,Anacortes,WA,98221,E,48.508154,-122.611842,147673,,J1772,US,public
1203 Parking Lot,1203 26th Street,Anacortes,WA,98221,E,48.5012896,-122.6152529,147674,,J1772,US,public
Island Hospital Behind M.O.B. Building,1211 24th Street,Anacortes,WA,98221,E,48.5006578,-122.6159562,147675,,J1772,US,public
Hotel lndigo Everett,1028 13th Street,Everett,WA,98201,E,48.0000028,-122.2146431,147681,,J1772,US,public
"Walgreens - Everett, WA #5598",6807 Evergreen Way,Everett,WA,98203,E,47.935727,-122.218396,147682,,J1772,US,public
Light House Park,609 Front Street,Mukilteo,WA,98275,E,47.9487555,-122.3062009,147683,,J1772,US,public
"Walgreens - Everett, WA #4730",13110 Bothell Everett Hwy,Everett,WA,98208,E,47.8789325,-122.2071316,147684,,J1772,US,public
Valley Supply - Woodinville,8310 Maltby Road,Woodinville,WA,98072,E,47.8045651,-122.1205486,147685,,J1772,US,public
"Walgreens - Lynnwood, WA #6302",16423 Larch Way,Lynnwood,WA,98037,E,47.848697,-122.246153,147686,,J1772,US,public
"Walgreens - Bothell, WA #6614",20812 Bothell-Everett Hwy,Bothell,WA,98201,E,47.808371,-122.208706,147687,,J1772,US,public
Canyon Park Office Park,22232 17th Avenue Southeast,Bothell,WA,98021,E,47.7953945,-122.2116571,147689,,J1772,US,public
Monte Villa,3830 Monte Villa Parkway,Bothell,WA,98021,E,47.776781,-122.181535,147690,,J1772,US,public
"531632: MR Creekside, LLC",20311 52nd Avenue West,Lynnwood,WA,98036,E,47.8142359,-122.3016909,147691,,J1772,US,public
Public Safety #3,205 5th Avenue North,Edmonds,WA,98020,E,47.8124532,-122.3758246,147692,,J1772,US,public
Public Safety #4,205 5th Avenue North,Edmonds,WA,98020,E,47.8124532,-122.3758246,147693,,J1772,US,public
Main Street #5,Main & 6th Streets.,Edmonds,WA,98020,E,47.8105149,-122.3748742,147694,,J1772,US,public
City Hall #2,121 5th Avenue North,Edmonds,WA,98020,E,47.8113372,-122.37709,147695,,J1772,US,public
Willows A,11431 Willows Road,Redmond,WA,98052,E,47.7034052,-122.1537852,147696,,J1772,US,public
6th Ave #6,100 6th Avenue,Edmonds,WA,98020,E,47.8040624,-122.3735496,147697,,J1772,US,public
City Park #1,600 3rd Avenue South,Edmonds,WA,98020,E,47.8051107,-122.3813841,147698,,J1772,US,public
531605: Park East Business Park,18005 Northeast 68th Street,Redmond,WA,98052,E,47.6665847,-122.0991426,147699,,J1772,US,public
531606 : Willows Commerce Park - DigiPen,9931 Willows Road,Redmond,WA,98052,E,47.688818,-122.150315,147700,,J1772,US,public
"Walgreens - Shoreline, WA #4759",17518 15th Ave NE,Shoreline,WA,98155,E,47.7562357,-122.3134641,147701,,J1772,US,public
"Walgreens - Kirkland, WA #6258",11607 98th Ave NE,Kirkland,WA,98034,E,47.7047402,-122.2108592,147702,,J1772,US,public
"Walgreens - Kirkland, WA #4156",12405 NE 85th St,Kirkland,WA,98033,E,47.67881,-122.17536,147703,,J1772,US,public
Array Apartments,14027 Lake City Way NE,Seattle,WA,98125,E,47.731273,-122.293062,147705,,J1772,US,public
Whitman College,147 South Park Street,Walla Walla,WA,99362,E,46.0705799,-118.3306351,147706,,J1772,US,public
Sequim City/ Clallam PUD,150 N. Govan Ave,Sequim,WA,98382,E,48.07988782,-123.097497,147707,,J1772,US,public
"Walgreens - Seattle, WA #4157",859 NE Northgate Way,Seattle,WA,98125,E,47.7084377,-122.3179225,147708,,J1772,US,public
Cochran Main Office,12500 Aurora Avenue,Seattle,WA,98133,E,47.7199844,-122.3440925,147709,,J1772,US,public
"Walgreens - Bellevue, WA #3662",647 140th Ave NE,Bellevue,WA,98005,E,47.6165569,-122.1537017,147710,,J1772,US,public
South Building,10215 Greenwood Ave. North,Seattle,WA,98133,E,47.7033895,-122.3558363,147711,,J1772,US,public
North Building,211 N. 103rd ST,Seattle,WA,98133,E,47.703632,-122.3565066,147712,,J1772,US,public
Plaza East,11100 NE 8th Street,Bellevue,WA,98004,E,47.6176444,-122.191379,147713,,J1772,US,public
929 Office Tower,929 108th Avenue NE,Bellevue,WA,98004,E,47.618317,-122.1969022,147714,,J1772,US,public
Discovery West Apartments,"580 8th Ave., NE",Issaquah,WA,98029,E,47.5365604,-122.0205442,147715,,J1772,US,public
Bellevue Corporate Plaza,"600 108th Avenue, NE
Suite 116",Bellevue,WA,98004,E,47.6159842,-122.195596,147716,,J1772,US,public
Swedish Medical Center Issaquah Campus,751 N.E. Blakely Drive,Issaquah,WA,98027,E,47.536237,-122.0220539,147717,,J1772,US,public
531607 : Centre 425 / Everest,425 106th Avenue Northeast,Bellevue,WA,98004,E,47.6141795,-122.199362,147719,,J1772,US,public
Venn at Main Apartments,10333 NE 1st St,Bellevue,WA,98004,E,47.6110064,-122.2021671,147720,,J1772,US,public
Legacy Partners Commercial,"7525 SE 4th Street, Suite 180",Mercer Island,WA,98040,E,47.60692,-122.1987223,147722,,J1772,US,public
Sunset North,3100 139th Avenue Southeast,Bellevue,WA,98005,E,47.582405,-122.153989,147723,,J1772,US,public
531614 :Sunset Corporate Campus,13810 Southeast Eastgate Way,Bellevue,WA,98005,E,47.5806355,-122.1564536,147724,,J1772,US,public
Sunset Corporate Campus,13810 Southeast Eastgate Way,Bellevue,WA,98005,E,47.5806355,-122.1564536,147725,,J1772,US,public
The Commons at Ballard,"5621 22nd Avenue, NW",Seattle,WA,98107,E,47.6699634,-122.3847489,147727,,J1772,US,public
WSU Wine Science,359 University Drive,Richland,WA,99354,E,46.3343983,-119.269803,147728,,J1772,US,public
"Walgreens - Mercer Island, WA #3733",7707 SE 27th St,Mercer Island,WA,98040,E,47.5866676,-122.2340887,147730,,J1772,US,public
Central Co-op,1600 East Madison Street,Seattle,WA,98122,E,47.6154894,-122.3110069,147731,,J1772,US,public
531613 - 1000-1100 Dexter Avenue N,1000 Dexter Avenue North,Seattle,WA,98109,E,47.6283848,-122.3418983,147732,,J1772,US,public
Juxt,"810 Dexter Ave., North",Seattle,WA,98109,E,47.6266892,-122.341933,147733,,J1772,US,public
531620 : Centre 425/Everest,501 Fairview Avenue North,Seattle,WA,98109,E,47.6233435,-122.334684,147734,,J1772,US,public
Troy Block,300 Boren Avenue North,Seattle,WA,98109,E,47.6211672,-122.3354501,147737,,J1772,US,public
431602 : Kinects Tower - 1823 Minor Avenue,1823 Minor Avenue,Seattle,WA,98101,E,47.6171782,-122.3313731,147741,,J1772,US,public
Tilt49 Realty LLC,1812 Boren Avenue,Seattle,WA,98101,E,47.6170248,-122.3322181,147742,,J1772,US,public
Hill 7 Station,1099 Stewart Street,Seattle,WA,98101,E,47.6164918,-122.3324879,147743,,J1772,US,public
1007 Stewart Street,1007 Stewart Street,Seattle,WA,98101,E,47.6163395,-122.3330877,147744,,J1772,US,public
531628 : 2201 Westlake,2201 Westlake Avenue,Seattle,WA,98109,E,47.61809006,-122.33892,147745,,J1772,US,public
531622 : 818 Stewart Street Holdco LLC,818 Stewart Street,Seattle,WA,98101,E,47.6156458,-122.3350555,147746,,J1772,US,public
818 Stewart Street Holdco LLC,818 Stewart Street,Seattle,WA,98101,E,47.6156458,-122.3350555,147747,,J1772,US,public
1918 Eight Avenue Holdco LLC,1918 8th Avenue,Seattle,WA,98101,E,47.6156878,-122.3359895,147748,,J1772,US,public
531623 : 1918 Eight Avenue Holdco LLC,1918 8th Avenue,Seattle,WA,98101,E,47.6156878,-122.3359895,147749,,J1772,US,public
531604 : 600 Broadway,600 Broadway,Seattle,WA,98122,E,47.6078691,-122.3196562,147750,,J1772,US,public
531616 - Marion & Minor Garage,1101 Madison Street,Seattle,WA,98104,E,47.6091997,-122.3241094,147751,,J1772,US,public
1600 Seventh,1600 7th Ave,Seattle,WA,98191,E,47.6132353,-122.3344034,147752,,J1772,US,public
Queen Anne Square,200 West Mercer Street,Seattle,WA,98119,E,47.6246042,-122.3593182,147753,,J1772,US,public
Washington State Convention Center Parking Garage,705 Pike ST,Seattle,WA,98101,E,47.61137828,-122.3314401,147754,,J1772,US,public
Dimension Seattle,225 Cedar Street,Seattle,WA,98121,E,47.6166344,-122.3495259,147755,,J1772,US,public
101 Elliott,101 Elliott Avenue West,Seattle,WA,98121,E,47.619075,-122.359573,147757,,J1772,US,public
Market Place Tower,2025 1st Avenue,Seattle,WA,98121,E,47.6114682,-122.3438233,147758,,J1772,US,public
"531612 : PRISA Market Place Tower WA, LLC c/o CBRE",2025 1st Avenue,Seattle,WA,98121,E,47.6113722,-122.343703,147759,,J1772,US,public
Inn At The Market,86 Pine Street,Seattle,WA,98101,E,47.6098122,-122.3413016,147760,,J1772,US,public
1201 Third,"1201 Third Avenue
Suite 520",Seattle,WA,98101,E,47.6072826,-122.3360929,147761,,J1772,US,public
Pike Place Market,1901 Western Avenue,Seattle,WA,98101,E,47.6091582,-122.3418441,147762,,J1772,US,public
Gateway Transit Center,123 East Front Street,Port Angeles,WA,98362,E,48.1197291,-123.4322999,147763,,J1772,US,public
Level A,"999 Third Avenue, Level A",Seattle,WA,98104,E,47.6048564,-122.3338286,147764,,J1772,US,public
Second and Seneca Tower,1191 2nd Avenue,Seattle,WA,98101,E,47.6060061,-122.336716,147765,,J1772,US,public
"531603: 701 Pike Street (Seattle), LLC",701 Pike Street,Seattle,WA,98101,E,47.6035183,-122.3329014,147766,,J1772,US,public
Millennium Tower,719 Second Ave,Seattle,WA,98104,E,47.6034418,-122.3339101,147767,,J1772,US,public
City Investors XXIII LLC,"505 Union Station, 505 5th Avenue South,",Seattle,WA,98104,E,47.5975217,-122.3276786,147768,,J1772,US,public
Union Station Parking Garage (#USPG),550 4th Avenue South,Seattle,WA,98134,E,47.5975078,-122.328595,147769,,J1772,US,public
Avalark Hawk Tower,255 S. King Street,Seattle,WA,98104,E,47.5980919,-122.3309701,147770,,J1772,US,public
450 Alaskan Garage,450 Alaskan Way,Seattle,WA,98104,E,47.5987016,-122.3351902,147771,,J1772,US,public
505 First Garage,505 1st Avenue South,Seattle,WA,98104,E,47.5974244,-122.3347174,147772,,J1772,US,public
531610: Stadium Innovation Center,1531 Utah Avenue South,Seattle,WA,98134,E,47.5892477,-122.3358112,147773,,J1772,US,public
"Walgreens - Renton, WA #7355",3011 NE Sunset Blvd,Renton,WA,98056,E,47.5025057,-122.1780214,147774,,J1772,US,public
"Walgreens - Renton, WA #12497",4105 NE 4th St,Renton,WA,98059,E,47.4884945,-122.1642138,147775,,J1772,US,public
"531621 : McKinstry, Co (Garage)",210 South Hudson Street,Seattle,WA,98134,E,47.55761736,-122.3311812,147776,,J1772,US,public
"Walgreens - Bainbridge Island, WA #15673",1315 Wintergreen Lane NE,Bainbridge Island,WA,98110,E,47.6357914,-122.5148321,147777,,J1772,US,public
"Walgreens - Renton, WA #4627",275 Rainer Ave S,Renton,WA,98056,E,47.4778301,-122.2162815,147778,,J1772,US,public
"Walgreens - Seattle, WA #4898",6330 35th Ave SW,Seattle,WA,98126,E,47.5454638,-122.3764102,147779,,J1772,US,public
"Walgreens - Bremerton, WA #5912",3333 Wheaton Way,Bremerton,WA,98310,E,47.5944743,-122.6294686,147780,,J1772,US,public
